stop_id,stop_code,stop_name,stop_desc,stop_lat,stop_lon,zone_id,stop_url,location_type,platform_code
1_01,,大杉公会堂前,大杉公会堂前（阿）,35.257631023706,134.115176796913,1_01,,0,
10_01,,阿波出張所前,阿波出張所前（阿）,35.2369704517732,134.111287593842,10_01,,0,
11_01,,あば温泉前,あば温泉前（阿）,35.2352353551131,134.110659956932,11_01,,0,
12_01,,神田,神田（阿）,35.2321155940091,134.111362695694,12_01,,0,
13_01,,大ヶ山口,大ヶ山口（阿）,35.2307879049127,134.112532138824,13_01,,0,
14_01,,橋本前,橋本前（阿）,35.2289036905203,134.113191962242,14_01,,0,
15_01,,樋村橋,樋村橋（阿）,35.2270588688957,134.114661812782,15_01,,0,
16_01,,下沢口,下沢口（阿）,35.2245610648038,134.11284327507,16_01,,0,
17_01,,一ノ渡,一ノ渡（阿）,35.2214890972882,134.111770391464,17_01,,0,
18_01,,阿蔵,阿蔵（阿）,35.2171723710861,134.111861586571,18_01,,0,
19_01,,河井中,河井中（阿）,35.2121497799268,134.110563397408,19_01,,0,
2_01,,段,段（阿）,35.25452,134.11522,2_01,,0,
20_01,,河井橋,河井橋（阿）,35.2081306052481,134.112306833267,20_01,,0,
21_01,,美作河井駅,美作河井駅（阿）,35.205579619847,134.107076525688,21_01,,0,
22_01,,山下,山下（阿）,35.2064474910034,134.107607603073,22_01,,0,
23_01,,大ヶ原,大ヶ原（阿）,35.2032740211178,134.089974761009,23_01,,0,
24_01,,知和橋,知和橋（阿）,35.1956773542948,134.085967540741,24_01,,0,
25_01,,知和駅前,知和駅前（阿）,35.1935029866072,134.077234268188,25_01,,0,
26_01,,青栁口,青栁口（阿）,35.191449,134.06737,26_01,,0,
27_01,,加茂小学校,加茂小学校（阿）,35.1769610130909,134.055803418159,27_01,,0,
28_01,,加茂支所前,加茂支所前（加・イ）,35.177868650616,134.053893685341,28_01,,0,
29_01,,めぐみ荘,めぐみ荘（加）,35.1782106578409,134.049827456474,29_01,,0,
3_01,,小原,小原（阿）,35.2512616740045,134.115997552872,3_01,,0,
30_01,,岸本橋,岸本橋（阿）,35.1768382395713,134.051994681358,30_01,,0,
31_01,,東西橋,東西橋（阿）,35.172477,134.056517,31_01,,0,
32_01,,加茂中学校,加茂中学校（阿）,35.1750141615022,134.057782888412,32_01,,0,
4_01,,福本橋,福本橋（阿）,35.2491676541568,134.116040468216,4_01,,0,
5_01,,落合口,落合口（阿）,35.2472312958768,134.116019010544,5_01,,0,
6_01,,大高下,大高下（阿）,35.2456848094032,134.114742279053,6_01,,0,
7_01,,ふれあい会館前,ふれあい会館前（阿）,35.2441733354029,134.113883972168,7_01,,0,
8_01,,尾所川口,尾所川口（阿）,35.2417549199451,134.113690853119,8_01,,0,
9_01,,大畑,大畑（阿）,35.2379869562461,134.111818671227,9_01,,0,
1001_01,,コンベックス,,34.625673,133.832145,1001_01,,0,
1002_01,,コンベックス西,,34.62349,133.826689,1002_01,,0,
1002_02,,コンベックス西,,34.623199,133.826614,1002_02,,0,
1003_01,,イトーピア,,34.622404,133.822703,1003_01,,0,
1004_01,,深砂公園,,34.616524,133.821335,1004_01,,0,
1005_01,,南岡山医療センター,,34.614453,133.823106,1005_01,,0,
1006_01,,中山広場,,34.614621,133.821942,1006_01,,0,
1006_02,,中山広場,,34.614211,133.822033,1006_02,,0,
1007_01,,中山南,,34.612718,133.820166,1007_01,,0,
1007_02,,中山南,,34.61267,133.820257,1007_02,,0,
1008_01,,ニュー早島,,34.611204,133.820863,1008_01,,0,
1008_02,,ニュー早島,,34.611178,133.820949,1008_02,,0,
1009_01,,大池,,34.610255,133.820359,1009_01,,0,
1009_02,,大池,,34.610162,133.820322,1009_02,,0,
1010_01,,備南台,,34.610303,133.81573,1010_01,,0,
1010_02,,備南台,,34.610286,133.815011,1010_02,,0,
1011_01,,畑岡,,34.607809,133.812109,1011_01,,0,
1011_02,,畑岡,,34.607747,133.812023,1011_02,,0,
1012_01,,金田,,34.604206,133.808622,1012_01,,0,
1012_02,,金田,,34.604307,133.808734,1012_02,,0,
1013_01,,噂島西,,34.604042,133.81115,1013_01,,0,
1013_02,,噂島西,,34.604153,133.811063,1013_02,,0,
1014_01,,噂島東,,34.604886,133.812994,1014_01,,0,
1014_02,,噂島東,,34.605186,133.813123,1014_02,,0,
1015_01,,中学校北,,34.602426,133.819554,1015_01,,0,
1015_02,,中学校北,,34.602488,133.820059,1015_02,,0,
1016_01,,長津,,34.6021,133.821867,1016_01,,0,
1016_02,,長津,,34.602148,133.822011,1016_02,,0,
1017_01,,下野,,34.600603,133.809502,1017_01,,0,
1017_02,,下野,,34.600559,133.80962,1017_02,,0,
1018_01,,金田口,,34.599177,133.812039,1018_01,,0,
1018_02,,金田口,,34.599097,133.812307,1018_02,,0,
1019_01,,宮崎,,34.598722,133.81596,1019_01,,0,
1019_02,,宮崎,,34.598735,133.81691,1019_02,,0,
1020_01,,弁財天,,34.598285,133.820112,1020_01,,0,
1020_02,,弁財天,,34.598351,133.820016,1020_02,,0,
1021_01,,片田,,34.600347,133.821523,1021_01,,0,
1021_02,,片田,,34.600651,133.821824,1021_02,,0,
1022_01,,小浜の樋,,34.602369,133.824533,1022_01,,0,
1022_02,,小浜の樋,,34.602378,133.824152,1022_02,,0,
1023_01,,中銀前,,34.603327,133.82656,1023_01,,0,
1024_01,,小学校前［早島小］,,34.604215,133.828197,1024_01,,0,
1025_01,,早島駅筋,,34.605923,133.830476,1025_01,,0,
1026_01,,松尾坂,,34.606595,133.830879,1026_01,,0,
1026_02,,松尾坂,,34.605685,133.831539,1026_02,,0,
1027_01,,早島駅,,34.602488,133.833561,1027_01,,0,
1028_01,,早島町役場,,34.600987,133.828155,1028_01,,0,
1029_01,,オアシス早島,,34.60047,133.826491,1029_01,,0,
1030_01,,岡山流通会館前,,34.627688,133.838239,1030_01,,0,
1031_01,,上矢尾,,34.624435,133.834945,1031_01,,0,
1032_01,,新屋敷,,34.621822,133.830305,1032_01,,0,
1033_01,,矢尾,,34.617734,133.826931,1033_01,,0,
1033_02,,矢尾,,34.618043,133.827097,1033_02,,0,
1034_01,,わかみや保育園前,,34.615897,133.828653,1034_01,,0,
1034_02,,わかみや保育園前,,34.615959,133.829141,1034_02,,0,
1035_01,,大谷荘,,34.616321,133.831308,1035_01,,0,
1035_02,,大谷荘,,34.6164,133.831308,1035_02,,0,
1036_01,,若宮,,34.615517,133.833202,1036_01,,0,
1036_02,,若宮,,34.615438,133.833228,1036_02,,0,
1037_01,,若宮下,,34.614966,133.830594,1037_01,,0,
1037_02,,若宮下,,34.614886,133.830584,1037_02,,0,
1038_01,,山川池,,34.6144,133.828475,1038_01,,0,
1038_02,,山川池,,34.614264,133.82869,1038_02,,0,
1039_01,,無津,,34.611019,133.830106,1039_01,,0,
1039_02,,無津,,34.611469,133.830155,1039_02,,0,
1040_01,,真磯,,34.608528,133.830734,1040_01,,0,
1040_02,,真磯,,34.609204,133.831066,1040_02,,0,
1041_01,,塩津,,34.606608,133.834301,1041_01,,0,
1042_01,,真磯台,,34.609663,133.827826,1042_01,,0,
1042_02,,真磯台,,34.609632,133.827832,1042_02,,0,
1043_01,,城山,,34.608065,133.825423,1043_01,,0,
1043_02,,城山,,34.6079851,133.82547,1043_02,,0,
1044_01,,頓行,,34.60655,133.823106,1044_01,,0,
1044_02,,頓行,,34.60667,133.823283,1044_02,,0,
1045_01,,矢尾グラウンドゴルフ場,,34.621543,133.82847,1045_01,,0,
1056_01,,日笠山,,34.6184,133.828631,1056_01,,0,
1_01,,井原バスセンター,,34.601386,133.46537,1_01,,0,,
2_01,,駅前通り,,34.598028,133.46688,2_01,,0,,
2_02,,駅前通り,,34.598449,133.466553,2_02,,0,,
3_01,,井原郵便局前,,34.595056,133.468165142857,3_01,,0,,
3_02,,井原郵便局前,,34.595923,133.467629,3_02,,0,,
4_01,,井原駅,,34.593309,133.468334571429,4_01,,0,,
5_01,,市民会館前,,34.596444,133.464725,5_01,,0,,
5_02,,市民会館前,,34.596874,133.465723285714,5_02,,0,,
6_01,,市役所前,,34.597328,133.462763142857,6_01,,0,,
6_02,,市役所前,,34.597641,133.462798571429,6_02,,0,,
7_01,,井原小学校前,,34.601024,133.461381,7_01,,0,,
7_02,,井原小学校前,,34.602067,133.461041952381,7_02,,0,,
8_01,,市民病院前,,34.603714,133.458645,8_01,,0,,
9_01,,井原高入口,,34.605026,133.457618,9_01,,0,,
9_02,,井原高入口,,34.605226,133.45747,9_02,,0,,
10_01,,昭和橋,,34.60675,133.455418,10_01,,0,,
10_02,,昭和橋,,34.606825,133.455429,10_02,,0,,
11_01,,向町,,34.609327,133.45242,11_01,,0,,
11_02,,向町,,34.608791,133.453437,11_02,,0,,
12_01,,向町入口,,34.610497,133.45107,12_01,,0,,
12_02,,向町入口,,34.609714,133.451949,12_02,,0,,
13_01,,長川,,34.615176,133.449716,13_01,,0,,
14_01,,飯名,,34.620456,133.445437857143,14_01,,0,,
15_01,,梶江,,34.620877,133.44068,15_01,,0,,
15_02,,梶江,,34.62099,133.440307,15_02,,0,,
16_02,,簗瀬,,34.622873,133.437441857143,16_02,,0,,
17_02,,芳井中学校前,,34.627637,133.433771,17_02,,0,,
18_01,,芳井郵便局前,,34.624084,133.438962571429,18_01,,0,,
19_01,,与井,,34.625989,133.436169857143,19_01,,0,,
20_01,,与井上,,34.6279246666667,133.434752714286,20_01,,0,,
21_01,,佐原,,34.631364,133.434373,21_01,,0,,
22_01,,芳井支所前,,34.632431,133.43235,22_01,,0,,
23_01,,戎橋,,34.649893,133.437237857143,23_01,,0,,
24_01,,片塚,,34.655035,133.441742428571,24_01,,0,,
25_01,,谷の宮,,34.660787,133.444011428571,25_01,,0,,
26_01,,横谷,,34.664842,133.447551857143,26_01,,0,,
27_01,,種入口,,34.668553,133.455671,27_01,,0,,
28_01,,明治局前,,34.671515,133.457533,28_01,,0,,
29_01,,明治,,34.673746,133.458294,29_01,,0,,
30_01,,土頭,,34.68002,133.460769,30_01,,0,,
31_01,,佐屋入口,,34.686253,133.449231,31_01,,0,,
32_01,,佐屋,,34.68826,133.444691285714,32_01,,0,,
33_01,,沢岡,,34.6331190000001,133.428056571428,33_01,,0,,
33_02,,沢岡,,34.632959,133.428730857143,33_02,,0,,
34_01,,通峠,,34.634444,133.42701,34_01,,0,,
35_01,,山内,,34.638259,133.426579,35_01,,0,,
36_01,,天神,,34.644721,133.42368,36_01,,0,,
37_01,,戸儀,,34.649341,133.414733,37_01,,0,,
38_01,,川相,,34.652662,133.412897,38_01,,0,,
38_02,,川相,,34.652732,133.412897,38_02,,0,,
39_01,,川相学校前,,34.650721,133.408819,39_01,,0,,
40_01,,川相上組,,34.64965,133.399461,40_01,,0,,
41_01,,仁吾山,,34.663779,133.409522,41_01,,0,,
42_01,,山村,,34.671273,133.408817,42_01,,0,,
43_01,,梅木,,34.67432,133.411354,43_01,,0,,
44_01,,下崎,,34.678545,133.411597,44_01,,0,,
45_01,,川町,,34.683766,133.40859,45_01,,0,,
46_01,,小原,,34.686189,133.407294,46_01,,0,,
47_01,,山戸,,34.688908,133.404431,47_01,,0,,
48_01,,共和,,34.693876,133.401006,48_01,,0,,
49_01,,上鴫,,34.692014,133.392887,49_01,,0,,
50_01,,蛇の穴,,34.693252,133.387952,50_01,,0,,
51_01,,畑谷,,34.701261,133.3843,51_01,,0,,
52_01,,下谷,,34.709132,133.386801,52_01,,0,,
53_01,,三原小学校前,,34.717991,133.393542,53_01,,0,,
54_01,,三原,,34.720154,133.392642,54_01,,0,,
55_01,,神迫,,34.720164,133.384666,55_01,,0,,
56_01,,入野尻,,34.728927,133.376163,56_01,,0,,
57_01,,村入,,34.735456,133.363996,57_01,,0,,
58_01,,杖立,,34.74584,133.3706,58_01,,0,,
59_01,,太刀洗,,34.742769,133.380331,59_01,,0,,
60_01,,高山市,,34.734638,133.397411857143,60_01,,0,,
61_01,,弥高山入口,,34.734486,133.402729,61_01,,0,,
62_01,,田中苑,,34.599036,133.463214714286,62_01,,0,,
62_02,,田中苑,,34.598966,133.463249,62_02,,0,,
63_01,,ＪＡ岡山西,,34.600379,133.466432571429,63_01,,0,,
63_02,,ＪＡ岡山西,,34.600274,133.466489714285,63_02,,0,,
64_01,,井原中学校前,,34.601475,133.471518,64_01,,0,,
64_02,,井原中学校前,,34.601417,133.470819,64_02,,0,,
65_01,,興譲館高校前,,34.601872,133.474673571429,65_01,,0,,
66_01,,やすらぎセンター,,34.601411,133.482847428571,66_01,,0,,
66_02,,やすらぎセンター,,34.601406,133.482556,66_02,,0,,
67_01,,東新町,,34.601196,133.484975857143,67_01,,0,,
67_02,,東新町,,34.601141,133.484964428571,67_02,,0,,
68_01,,長谷入口,,34.60519,133.486828428571,68_01,,0,,
68_02,,長谷入口,,34.604858,133.486843,68_02,,0,,
69_01,,戸倉,,34.609029,133.488711,69_01,,0,,
69_02,,戸倉,,34.608969,133.488762428571,69_02,,0,,
70_01,,戸倉上,,34.6149900000001,133.488928714286,70_01,,0,,
70_02,,戸倉上,,34.6151600000001,133.488871571428,70_02,,0,,
71_01,,才児下,,34.623122,133.490445,71_01,,0,,
72_01,,永祥寺入口,,34.62912,133.490180142857,72_01,,0,,
72_02,,永祥寺入口,,34.629055,133.490231571429,72_02,,0,,
73_01,,那須与一の墓入口,,34.6395259999999,133.500525714285,73_01,,0,,
73_02,,那須与一の墓入口,,34.6411060000001,133.500908571429,73_02,,0,,
74_01,,細見,,34.642276,133.501680714286,74_01,,0,,
74_02,,細見,,34.642191,133.501697857143,74_02,,0,,
75_01,,田輪,,34.644263,133.508022571429,75_01,,0,,
76_01,,長草,,34.647145,133.50241,76_01,,0,,
77_01,,江良,,34.654436,133.501349,77_01,,0,,
78_01,,栩木,,34.657851,133.503074,78_01,,0,,
79_01,,小松,,34.657218,133.509576,79_01,,0,,
80_01,,木野山,,34.661088,133.513218,80_01,,0,,
81_01,,矢谷,,34.66128,133.51679,81_01,,0,,
82_01,,谷山,,34.661882,133.522634,82_01,,0,,
83_01,,志村,,34.66153,133.529638,83_01,,0,,
84_01,,美星産直プラザ,,34.672081,133.53075,84_01,,0,,
85_01,,美星診療所前,,34.673612,133.532681,85_01,,0,,
86_01,,三山西,,34.6810161701205,133.538983608709,86_01,,0,,
87_01,,美星農協前,,34.682006314455,133.541716819705,87_01,,0,,
88_01,,美星支所前,,34.683633,133.543077714286,88_01,,0,,
89_01,,大元,,34.6868277743893,133.546766561154,89_01,,0,,
90_01,,下田,,34.688152864596,133.550942922937,90_01,,0,,
101_01,,下田東,,34.6885,133.552999,101_01,,0,,
102_01,,谷下,,34.6853452582901,133.55482551029,102_01,,0,,
103_01,,谷上,,34.681881660414,133.554865083041,103_01,,0,,
104_01,,上組,,34.678567294253,133.55715316638,104_01,,0,,
105_01,,中谷,,34.6747414367623,133.556086773518,105_01,,0,,
106_01,,千ノ坂,,34.668216,133.554947285714,106_01,,0,,
107_01,,美砂橋,,34.658283,133.550656761905,107_01,,0,,
108_01,,東水砂,,34.6554906502831,133.552098987779,108_01,,0,,
109_01,,米田,,34.6481388793577,133.554254121399,109_01,,0,,
110_01,,一本松,,34.641831,133.5593,110_01,,0,,
111_01,,車谷,,34.6362898474845,133.55931778347,111_01,,0,,
112_01,,仏田,,34.632662,133.563293,112_01,,0,,
113_01,,川面農協,,34.6261211286043,133.568908895978,113_01,,0,,
114_01,,北田,,34.623028,133.578139,114_01,,0,,
115_01,,田町,,34.6255410859782,133.586542904707,115_01,,0,,
116_01,,矢掛病院前,,34.6281907698253,133.587959811462,116_01,,0,,
117_01,,井原線矢掛駅,,34.6291886783584,133.590175781719,117_01,,0,,
118_01,,ネバーランド前,,34.6278816283065,133.590358171932,118_01,,0,,
119_01,,矢掛高校前,,34.627569,133.592888714286,119_01,,0,,
120_01,,矢掛高校入口,,34.624348,133.593104,120_01,,0,,
121_01,,矢掛中町,,34.6234665714976,133.590723927216,121_01,,0,,
121_02,,矢掛中町,,34.6233591893678,133.591151173919,121_02,,0,,
122_01,,矢掛西町,,34.622969949716,133.58724277242,122_01,,0,,
122_02,,矢掛西町,,34.6228671645249,133.587213691085,122_02,,0,,
123_01,,矢掛,,34.6227391376417,133.582397220811,123_01,,0,,
124_01,,加茂ハイツ入口,,34.578954,133.347592142857,124_01,,0,,
125_01,,加茂診療所入口,,34.5796789191357,133.348627233604,125_01,,0,,
125_02,,加茂診療所入口,,34.579617760957,133.348676911518,125_02,,0,,
126_01,,芦原,,34.5828776606857,133.351070141694,126_01,,0,,
126_02,,芦原,,34.5828482441297,133.351138247512,126_02,,0,,
127_01,,フジグラン前,,34.54406,133.359264714286,127_01,,0,,
128_01,,ビッグローズ前,,34.5474481113733,133.34991286721,128_01,,0,,
128_02,,ビッグローズ前,,34.5475138430164,133.350008688638,128_02,,0,,
129_01,,中国中央病院前,,34.5484364447067,133.348570010067,129_01,,0,,
130_01,,平成大学前,,34.5487169109125,133.347903344719,130_01,,0,,
130_02,,平成大学前,,34.5488633840043,133.349349057686,130_02,,0,,
131_01,,平成大学西,,34.549947655364,133.346724884389,131_01,,0,,
131_02,,平成大学西,,34.5495081635973,133.346956450522,131_02,,0,,
132_01,,正戸山,,34.5542603132947,133.345637035174,132_01,,0,,
132_02,,正戸山,,34.5537192345148,133.345871555672,132_02,,0,,
133_01,,下加茂南,,34.557675,133.344811,133_01,,0,,
133_02,,下加茂南,,34.55634,133.345251000001,133_02,,0,,
134_01,,下加茂,,34.5604832464303,133.344024912142,134_01,,0,,
134_02,,下加茂,,34.5609027950885,133.344016982907,134_02,,0,,
135_01,,二葉大橋北,,34.567446,133.342127571429,135_01,,0,,
135_02,,二葉大橋北,,34.567546,133.342241857143,135_02,,0,,
136_01,,平成大橋,,34.5689129620843,133.344719721669,136_01,,0,,
136_02,,平成大橋,,34.5688169108211,133.344658030531,136_02,,0,,
137_01,,加茂昭和橋,,34.56913,133.347317428571,137_01,,0,,
137_02,,加茂昭和橋,,34.56901,133.347214571428,137_02,,0,,
138_01,,加茂ヶ丘団地口,,34.5715906525835,133.348958429369,138_01,,0,,
138_02,,加茂ヶ丘団地口,,34.570529115748,133.349120294451,138_02,,0,,
139_01,,加茂小学校前,,34.5756915007072,133.349545600009,139_01,,0,,
139_02,,加茂小学校前,,34.5754060228962,133.349532303718,139_02,,0,,
140_01,,芦原下,,34.5794270003123,133.350950725686,140_01,,0,,
140_02,,芦原下,,34.5797160028169,133.351194226341,140_02,,0,,
141_01,,芦原団地口,,34.585439,133.353408428571,141_01,,0,,
141_02,,芦原団地口,,34.585339,133.353522714286,141_02,,0,,
142_01,,芦原上,,34.587236,133.354274,142_01,,0,,
142_02,,芦原上,,34.5867109999999,133.354205428572,142_02,,0,,
143_01,,四川別,,34.5897495611503,133.355152232328,143_01,,0,,
143_02,,四川別,,34.5896042786373,133.355293455876,143_02,,0,,
144_01,,旭保育所前,,34.5924020533556,133.356156893714,144_01,,0,,
144_02,,旭保育所前,,34.5925649729792,133.356437359325,144_02,,0,,
145_01,,庭田,,34.5956123471327,133.356076662887,145_01,,0,,
145_02,,庭田,,34.5961369233467,133.356164240275,145_02,,0,,
146_01,,粟根,,34.5996105029804,133.356485521366,146_01,,0,,
146_02,,粟根,,34.5993378274476,133.356567972417,146_02,,0,,
147_01,,上粟根,,34.6014672673014,133.356812168852,147_01,,0,,
148_01,,苅光,,34.60676,133.360556142857,148_01,,0,,
148_02,,苅光,,34.606505,133.360590428571,148_02,,0,,
149_01,,青笹,,34.6290933333333,133.376227714286,149_01,,0,,
150_01,,大谷中,,34.632159171284,133.378975146528,150_01,,0,,
151_01,,谷中,,34.6369286634777,133.381160563872,151_01,,0,,
152_01,,若林,,34.6402929424789,133.380096775507,152_01,,0,,
153_01,,大谷広間,,34.6425115157265,133.3796746181,153_01,,0,,
154_01,,大谷下,,34.6488251050657,133.380437027494,154_01,,0,,
155_01,,大谷高尾,,34.648343,133.386263428571,155_01,,0,,
156_01,,山野支所前,,34.6537301156907,133.390869227306,156_01,,0,,
157_01,,山野下市,,34.654072,133.391521714286,157_01,,0,,
158_01,,山野農協前,,34.6559032214783,133.391143979291,158_01,,0,,
159_01,,小迫,,34.6582308111759,133.3907144363,159_01,,0,,
160_01,,発電所前,,34.6628690000001,133.388405142857,160_01,,0,,
161_01,,東の免,,34.6622252873569,133.383414434924,161_01,,0,,
162_01,,池尻下,,34.6637056785373,133.38094586877,162_01,,0,,
163_01,,池尻,,34.6640684620028,133.378323721913,163_01,,0,,
164_01,,妻屋橋,,34.6681123031271,133.373451894504,164_01,,0,,
165_01,,山野田原,,34.6724749999999,133.362253,165_01,,0,,
166_01,,東城別,,34.5716976883191,133.345152834124,166_01,,0,,
166_02,,東城別,,34.5717989371847,133.345404167394,166_02,,0,,
167_01,,上中野,,34.5758987986158,133.346083260026,167_01,,0,,
167_02,,上中野,,34.5761598867072,133.346383157529,167_02,,0,,
174_01,,落合橋,,34.6095539766865,133.355106553766,174_01,,0,,
175_01,,竜王,,34.6136953314632,133.347550111905,175_01,,0,,
176_01,,芋原東,,34.6108739092906,133.347123914146,176_01,,0,,
177_01,,芋原,,34.6089391799098,133.345817911491,177_01,,0,,
178_01,,広瀬郵便局前,,34.6095849069225,133.343839956453,178_01,,0,,
179_01,,広瀬中学校前,,34.6114791329347,133.341835179983,179_01,,0,,
180_01,,広瀬学校前,,34.6139502489812,133.341726724957,180_01,,0,,
181_01,,楠田,,34.625590472638,133.344626078808,181_01,,0,,
1_01,,立戸公園,,34.6029,133.4838,1_01,,0,,
2_01,,新町,,34.607127,133.457922714286,2_01,,0,,
3_01,,池の内,,34.61989,133.4668,3_01,,0,,
4_01,,井原中学校,,34.60137,133.4708,4_01,,0,,
5_01,,井原バスセンター,,34.60141,133.4654,5_01,,0,,
6_01,,昭和橋,,34.60669,133.4554,6_01,,0,,
6_02,,昭和橋,,34.6068,133.4555,6_02,,0,,
7_01,,いばらサンサン交流館,,34.6074718772705,133.46182475003,7_01,,0,,
8_01,,大谷,,34.58349,133.473,8_01,,0,,
8_02,,大谷,,34.58358,133.4727,8_02,,0,,
9_01,,市民病院前,,34.60365,133.4587,9_01,,0,,
10_01,,子守唄の里高屋駅,,34.581665,133.433454285714,10_01,,0,,
10_02,,子守唄の里高屋駅,,34.5817344176583,133.433354951832,10_02,,0,,
11_01,,高屋児童会館,,34.5797,133.4334,11_01,,0,,
12_01,,梶草口,,34.56628,133.4508,12_01,,0,,
13_01,,匠住宅,,34.56399,133.4554,13_01,,0,,
14_01,,稲木,,34.562402,133.457472285714,14_01,,0,,
15_01,,スターハイツ,,34.56467,133.461,15_01,,0,,
16_01,,稲倉小学校,,34.56841,133.4659,16_01,,0,,
17_01,,嫁いらず観音,,34.57372,133.4571,17_01,,0,,
18_01,,矢ノ側,,34.57479,133.4463,18_01,,0,,
19_01,,大江公民館,,34.572765,133.441582571429,19_01,,0,,
20_01,,中講,,34.568318,133.444866,20_01,,0,,
21_01,,源代,,34.574104823939,133.439942335527,21_01,,0,,
22_01,,新川,,34.57619,133.436,22_01,,0,,
23_01,,西部いこいの里,,34.5791504199977,133.434989409509,23_01,,0,,
24_01,,中国新聞井原支局,,34.593515,133.465288571429,24_01,,0,,
24_02,,中国新聞井原支局,,34.593595,133.465111428571,24_02,,0,,
25_01,,井原駅,,34.59317,133.4684,25_01,,0,,
26_01,,リフレッシュ公園前,,34.577195,133.452982857143,26_01,,0,,
27_01,,JA晴れの国岡山,,34.60033,133.4664,27_01,,0,,
27_02,,JA晴れの国岡山,,34.60024,133.4665,27_02,,0,,
28_01,,井原郵便局前,,34.5959050000001,133.46764,28_01,,0,,
28_02,,井原郵便局前,,34.5950133295777,133.468192183571,28_02,,0,,
28_03,,井原郵便局前,,34.5955815762977,133.468381567841,28_03,,0,,
29_01,,野球場,,34.591156,133.462539285714,29_01,,0,,
30_01,,市民体育館,,34.5879369038199,133.461480161816,30_01,,0,,
31_01,,弓道場,,34.584895,133.458046,31_01,,0,,
32_01,,山王,,34.57813,133.4646,32_01,,0,,
33_01,,グラウンドゴルフ場前,,34.58562,133.4664,33_01,,0,,
33_02,,グラウンドゴルフ場前,,34.58546,133.4663,33_02,,0,,
34_01,,四季が丘団地,,34.58303,133.4664,34_01,,0,,
34_02,,四季が丘団地,,34.58292,133.4663,34_02,,0,,
35_01,,宮の端,,34.576855,133.474251428572,35_01,,0,,
35_02,,宮の端,,34.57682,133.474111428571,35_02,,0,,
36_01,,大迫,,34.5738369999998,133.481061428571,36_01,,0,,
37_01,,西方上,,34.56625,133.4839,37_01,,0,,
38_01,,蔵本,,34.5675,133.4886,38_01,,0,,
39_01,,県主小学校,,34.5707,133.4875,39_01,,0,,
40_01,,淀公民館,,34.57525,133.4933,40_01,,0,,
41_01,,淀下,,34.57839,133.4917,41_01,,0,,
42_01,,西方住宅,,34.57601,133.4787,42_01,,0,,
43_01,,森脇団地,,34.58655,133.493,43_01,,0,,
44_01,,惣谷公民館,,34.585245,133.489111428571,44_01,,0,,
45_01,,西郷,,34.58862,133.4991,45_01,,0,,
46_01,,木之子中学校,,34.5907850000001,133.501931428572,46_01,,0,,
47_01,,青木,,34.594522643101,133.504394879175,47_01,,0,,
47_02,,青木,,34.5941,133.5032,47_02,,0,,
48_01,,早雲の里荏原駅,,34.59707,133.5079,48_01,,0,,
49_01,,今市,,34.59637,133.4959,49_01,,0,,
50_01,,東町,,34.59708,133.495457714286,50_01,,0,,
51_01,,中町,,34.598899,133.492701428571,51_01,,0,,
52_01,,西町,,34.599595,133.4894,52_01,,0,,
53_01,,本新町公民館,,34.59962,133.4802,53_01,,0,,
54_01,,田中生誕地,,34.59922,133.4848,54_01,,0,,
55_01,,七日市,,34.59664,133.4739,55_01,,0,,
55_02,,七日市,,34.59648,133.4737,55_02,,0,,
56_01,,興譲館入口,,34.5996205721047,133.476742345429,56_01,,0,,
57_01,,七日市西,,34.59618,133.472,57_01,,0,,
57_02,,七日市西,,34.59609,133.4719,57_02,,0,,
58_01,,井原小学校前,,34.601055,133.461362857143,58_01,,0,,
58_02,,井原小学校前,,34.6019540815369,133.461096713214,58_02,,0,,
59_01,,井原高入口,,34.60501,133.4576,59_01,,0,,
59_02,,井原高入口,,34.60525,133.4575,59_02,,0,,
60_01,,向町,,34.60928,133.4524,60_01,,0,,
60_02,,向町,,34.6087707482036,133.45353290369,60_02,,0,,
61_01,,向町中,,34.6097,133.4529,61_01,,0,,
62_01,,図書館,,34.60525,133.461594285714,62_01,,0,,
63_01,,下町上,,34.60375,133.4642,63_01,,0,,
64_01,,下町,,34.6020640037212,133.466428074808,64_01,,0,,
65_01,,余田,,34.59518,133.4935,65_01,,0,,
66_01,,笹井,,34.59186,133.4936,66_01,,0,,
67_01,,東郷,,34.59196,133.5006,67_01,,0,,
68_01,,平井入口,,34.59782,133.5189,68_01,,0,,
69_01,,末国,,34.61198,133.5254,69_01,,0,,
70_01,,ふれあいセンター,,34.600305,133.521454428571,70_01,,0,,
71_01,,高越城登口,,34.59967,133.5182,71_01,,0,,
72_01,,荏原小学校,,34.60142,133.5124,72_01,,0,,
73_01,,内寺口,,34.60386,133.5098,73_01,,0,,
74_01,,米持,,34.60068,133.5038,74_01,,0,,
75_01,,森,,34.604056,133.504073714286,75_01,,0,,
76_01,,法泉寺,,34.6091,133.4976,76_01,,0,,
77_01,,長谷,,34.60694,133.4951,77_01,,0,,
78_01,,山本住宅,,34.60464,133.4897,78_01,,0,,
79_01,,やすらぎセンター,,34.60141,133.483,79_01,,0,,
80_01,,興譲館高校,,34.601805,133.475011428571,80_01,,0,,
81_01,,井原児童会館,,34.60544,133.4648,81_01,,0,,
82_01,,有年口,,34.6128,133.5042,82_01,,0,,
83_01,,堂西,,34.62544,133.5063,83_01,,0,,
84_01,,黒木公民館,,34.63233,133.5263,84_01,,0,,
85_01,,千手院,,34.62802,133.5137,85_01,,0,,
86_01,,井原ゴルフ入口,,34.6262,133.5141,86_01,,0,,
87_01,,丸山,,34.616634,133.527623,87_01,,0,,
88_01,,笹谷上,,34.63319,133.5099,88_01,,0,,
89_01,,百町,,34.64067,133.5134,89_01,,0,,
90_01,,田輪,,34.64426,133.5081,90_01,,0,,
91_01,,細見,,34.6421,133.5014,91_01,,0,,
92_01,,大末,,34.64295,133.4951,92_01,,0,,
93_01,,苅屋原,,34.641,133.4794,93_01,,0,,
94_01,,香蓮寺,,34.63157,133.4747,94_01,,0,,
95_01,,青野校前,,34.62563,133.4709,95_01,,0,,
96_01,,神戸,,34.60403,133.4764,96_01,,0,,
97_01,,寺戸,,34.60336,133.4721,97_01,,0,,
98_01,,北山,,34.6103,133.4667,98_01,,0,,
99_01,,正覚院,,34.61165,133.4608,99_01,,0,,
100_01,,勘定峠,,34.61722,133.4612,100_01,,0,,
101_01,,稗原,,34.63623,133.4584,101_01,,0,,
102_01,,稗原口,,34.63607,133.4627,102_01,,0,,
103_01,,仁井山,,34.637925,133.46664,103_01,,0,,
104_01,,那須一族公墓,,34.63679,133.4702,104_01,,0,,
105_01,,中尾,,34.636605,133.476713571429,105_01,,0,,
106_01,,高屋小学校,,34.58804,133.4271,106_01,,0,,
108_01,,山王口,,34.589925,133.465876190476,108_01,,0,,
109_01,,平櫛田中美術館,,34.59822,133.4647,109_01,,0,,
110_01,,下出部町二丁目,,34.58271,133.4399,110_01,,0,,
111_01,,猪原,,34.60742,133.4489,111_01,,0,,
112_01,,的場,,34.59468,133.464,112_01,,0,,
112_02,,的場,,34.59473,133.4638,112_02,,0,,
113_01,,駅前通り,,34.59802,133.4669,113_01,,0,,
113_02,,駅前通り,,34.59832,133.4666,113_02,,0,,
114_01,,天理教,,34.57378,133.4727,114_01,,0,,
115_01,,青木東,,34.59469,133.5055,115_01,,0,,
116_01,,向町入口,,34.61038,133.4511,116_01,,0,,
117_01,,市役所前,,34.5973149999997,133.462780000001,117_01,,0,,
117_02,,市役所前,,34.5976896564459,133.462778783406,117_02,,0,,
1101_01,,プラント5,,35.0792104239701,133.93945497638,1101_01,,0,
1102_01,,芳野公民館前,,35.074713993232,133.933667237092,1102_01,,0,
1102_02,,芳野公民館前,,35.0753235596738,133.933392364221,1102_02,,0,
1103_01,,芳野病院前,,35.0721477404125,133.935185072075,1103_01,,0,
1103_02,,芳野病院前,,35.0722337386098,133.935051295224,1103_02,,0,
1104_01,,吉原,,35.0689074151736,133.938033774002,1104_01,,0,
1104_02,,吉原,,35.0687703046592,133.938108187001,1104_02,,0,
1105_01,,旧鏡野農協前,,35.0791365542811,133.933390530728,1105_01,,0,
1105_02,,旧鏡野農協前,,35.0791371030336,133.93333353379,1105_02,,0,
1106_01,,岡坊,,35.0817116038874,133.933326457957,1106_01,,0,
1106_02,,岡坊,,35.081657827823,133.93326677881,1106_02,,0,
1107_01,,ハッピーマート前,,35.0850248218723,133.933228102195,1107_01,,0,
1107_02,,ハッピーマート前,,35.0850465081427,133.933185312491,1107_02,,0,
1108_01,,寺元,,35.0866543384679,133.932682206422,1108_01,,0,
1108_02,,寺元,,35.0865815881388,133.932652055845,1108_02,,0,
1109_01,,鏡野病院,,35.0879097454636,133.932497175318,1109_01,,0,
1110_01,,竹田,,35.0928102370012,133.934506974209,1110_01,,0,
1110_02,,竹田,,35.0929057048164,133.934423824914,1110_02,,0,
1111_01,,夢広場,,35.0947004787938,133.94282918497,1111_01,,0,
1111_02,,夢広場,,35.0947081598624,133.942897581296,1111_02,,0,
1112_01,,鏡野中学校前,,35.0948616700403,133.930752162264,1112_01,,0,
1112_02,,鏡野中学校前,,35.0947972937465,133.930761515228,1112_02,,0,
1113_01,,瀬戸,,35.098393134984,133.926425892696,1113_01,,0,
1113_02,,瀬戸,,35.0983749469996,133.926370879756,1113_02,,0,
1114_01,,小座,,35.1025779444023,133.923880051785,1114_01,,0,
1114_02,,小座,,35.1025364348683,133.923604551772,1114_02,,0,
1115_01,,下入,,35.1081442821435,133.912285961276,1115_01,,0,
1115_02,,下入,,35.1080998489889,133.912304736738,1115_02,,0,
1116_01,,中入,,35.109943043922,133.904579475218,1116_01,,0,
1116_02,,中入,,35.109889286474,133.90456807583,1116_02,,0,
1117_01,,中谷,,35.1110194037004,133.893307017433,1117_01,,0,
1117_02,,中谷,,35.1109634528092,133.893294947494,1117_02,,0,
1118_01,,湯指,,35.1124922740052,133.890069112726,1118_01,,0,
1118_02,,湯指,,35.1124549740895,133.89003692622,1118_02,,0,
1119_01,,古実里,,35.1135847954426,133.88559078054,1119_01,,0,
1119_02,,古実里,,35.1135268091493,133.88559710971,1119_02,,0,
1120_01,,影,,35.1154282104143,133.879428505518,1120_01,,0,
1120_02,,影,,35.1153723896068,133.879428808548,1120_02,,0,
1121_01,,高座口,,35.1192462879747,133.875212814653,1121_01,,0,
1121_02,,高座口,,35.1191837609368,133.875187333669,1121_02,,0,
1122_01,,高座,,35.1298344774957,133.869011545943,1122_01,,0,
1123_01,,大成,,35.1298012310514,133.863363799681,1123_01,,0,
1124_01,,寺山,,35.12869125912,133.851370267469,1124_01,,0,
1125_01,,楠谷,,35.1275710122073,133.848061638395,1125_01,,0,
1126_01,,大倉,,35.1261531967671,133.845121605066,1126_01,,0,
1127_01,,近衛殿,,35.1216255467997,133.848076239779,1127_01,,0,
1127_02,,近衛殿,,35.1215498583794,133.848093003584,1127_02,,0,
1128_01,,忠野,,35.1224499135312,133.844249617784,1128_01,,0,
1128_02,,忠野,,35.1224126181741,133.844248947232,1128_02,,0,
1129_01,,古屋橋,,35.1176162890661,133.827874442434,1129_01,,0,
1129_02,,古屋橋,,35.1176651049776,133.827814092735,1129_02,,0,
1130_01,,余野上,,35.1148162192001,133.82495924322,1130_01,,0,
1131_01,,黒地,,35.125969423769,133.828070738617,1131_01,,0,
1131_02,,黒地,,35.1259557128351,133.828019776649,1131_02,,0,
1132_01,,長原,,35.1305104653395,133.824465118485,1132_01,,0,
1132_02,,長原,,35.1305088201193,133.824388675533,1132_02,,0,
1133_01,,浜橋,,35.1352347562514,133.828090559463,1133_01,,0,
1133_02,,浜橋,,35.1352045956257,133.828034903629,1133_02,,0,
1134_01,,高橋,,35.1404621560694,133.828329665122,1134_01,,0,
1134_02,,高橋,,35.1404899134937,133.828234446708,1134_02,,0,
1135_01,,谷口,,35.1465935254235,133.829931645113,1135_01,,0,
1135_02,,谷口,,35.146612715865,133.829856543265,1135_02,,0,
1136_01,,梅谷,,35.1502051135268,133.836491667289,1136_01,,0,
1136_02,,梅谷,,35.1502440409758,133.836462833544,1136_02,,0,
1137_01,,大原,,35.1528300347636,133.841259274551,1137_01,,0,
1137_02,,大原,,35.1528749917738,133.841227758597,1137_02,,0,
1138_01,,渡,,35.1521758368101,133.84503349909,1138_01,,0,
1138_02,,渡,,35.1522145134998,133.845114195309,1138_02,,0,
1139_01,,山口,,35.1570972634578,133.850203532147,1139_01,,0,
1139_02,,山口,,35.1570654662497,133.850110995942,1139_02,,0,
1140_01,,東谷,,35.1592845158392,133.848296935722,1140_01,,0,
1140_02,,東谷,,35.1592231159736,133.848377401987,1140_02,,0,
1141_01,,富振興センター前（共同バス）,,35.1609376624177,133.843687837708,1141_01,,0,
1143_01,,中村,,35.1216191433862,133.863500775479,1143_01,,0,
1144_01,,山城,,35.1094454117521,133.897988057187,1144_01,,0,
1144_02,,山城,,35.109410304637,133.897988057187,1144_02,,0,
1145_01,,男女山橋,,35.0974934628072,133.935996534762,1145_01,,0,
1145_02,,男女山橋,,35.0975104703043,133.935848678,1145_02,,0,
1146_01,,下土居,,35.1052793793782,133.933170714188,1146_01,,0,
1146_02,,下土居,,35.1052589149216,133.933081762098,1146_02,,0,
1147_01,,上土居,,35.1089562356434,133.931209637036,1147_01,,0,
1147_02,,上土居,,35.1089518472285,133.93111978304,1147_02,,0,
1148_01,,円宗寺東,,35.0989787894763,133.943102768946,1148_01,,0,
1148_02,,円宗寺東,,35.0990149983221,133.943097404528,1148_02,,0,
1149_01,,沢田,,35.0996514147735,133.950611218524,1149_01,,0,
1149_02,,沢田,,35.0996448313996,133.950548857169,1149_02,,0,
1150_01,,公保田,,35.1069211912644,133.953391488478,1150_01,,0,
1150_02,,公保田,,35.1069157056088,133.953339855958,1150_02,,0,
1151_01,,市場,,35.1098692098241,133.948157518231,1151_01,,0,
1151_02,,市場,,35.1097704715377,133.948130025591,1151_02,,0,
1152_01,,和田,,35.1115286869039,133.944888892642,1152_01,,0,
1152_02,,和田,,35.1114886438731,133.944856706136,1152_02,,0,
1153_01,,土居東,,35.1158479876036,133.937020277182,1153_01,,0,
1153_02,,土居東,,35.1158226523393,133.937031309259,1153_02,,0,
1154_01,,貞永寺,,35.1166008867786,133.932551840515,1154_01,,0,
1154_02,,貞永寺,,35.1165769413102,133.932546734256,1154_02,,0,
1155_01,,上小座,,35.1134832591753,133.925874894444,1155_01,,0,
1155_02,,上小座,,35.1134536390156,133.925914457024,1155_02,,0,
1156_01,,健康づくり公園前,,35.119528100199,133.920366012857,1156_01,,0,
1156_02,,健康づくり公園前,,35.119542909176,133.920311027576,1156_02,,0,
1157_01,,大郷,,35.1255727278784,133.922856470364,1157_01,,0,
1157_02,,大郷,,35.1255365308316,133.922837694902,1157_02,,0,
1158_01,,馬場,,35.1254383404534,133.918575291058,1158_01,,0,
1158_02,,馬場,,35.1254032402292,133.91860613646,1158_02,,0,
1159_01,,西馬場,,35.1218317444864,133.910827125544,1159_01,,0,
1159_02,,西馬場,,35.1218240659737,133.910885463586,1159_02,,0,
1160_01,,塚谷,,35.1211848807393,133.907324135522,1160_01,,0,
1161_01,,赤野,,35.1190223253494,133.911225301684,1161_01,,0,
1162_01,,越畑上,,35.2323994497157,133.986711625778,1162_01,,0,
1163_01,,越畑中,,35.2247005145288,133.986671113802,1163_01,,0,
1163_02,,越畑中,,35.2247200762212,133.986611535711,1163_02,,0,
1164_01,,越畑,,35.2171566644935,133.987805038513,1164_01,,0,
1164_02,,越畑,,35.2171807686833,133.987756758754,1164_02,,0,
1165_01,,ふるさと村前,,35.2153875071404,133.986844693023,1165_01,,0,
1165_02,,ふるさと村前,,35.215392437651,133.98679238995,1165_02,,0,
1166_01,,徳藤,,35.1998967590926,133.986224007942,1166_01,,0,
1166_02,,徳藤,,35.1998753894673,133.986198526958,1166_02,,0,
1167_01,,岩屋,,35.1930125268337,133.983220060366,1167_01,,0,
1167_02,,岩屋,,35.1930015671234,133.983182509442,1167_02,,0,
1168_01,,へこくら橋,,35.1800577842958,133.979324645606,1168_01,,0,
1168_02,,へこくら橋,,35.1800013327733,133.979342750515,1168_02,,0,
1169_01,,宗重,,35.1739810889269,133.972902079493,1169_01,,0,
1169_02,,宗重,,35.1739619049411,133.972946335938,1169_02,,0,
1170_01,,鳥川,,35.170365089751,133.972332868199,1170_01,,0,
1170_02,,鳥川,,35.1703387417487,133.97240470446,1170_02,,0,
1171_01,,中林口,,35.1667647534887,133.968660987048,1171_01,,0,
1171_02,,中林口,,35.1667526939136,133.96872536006,1171_02,,0,
1172_01,,大町,,35.1631642959036,133.963258565853,1172_01,,0,
1172_02,,大町,,35.1631988316602,133.963222356033,1172_02,,0,
1173_01,,薬師堂前,,35.158592538495,133.963210803969,1173_01,,0,
1173_02,,薬師堂前,,35.1586403822045,133.963202945926,1173_02,,0,
1174_01,,香北農協前,,35.1582440761959,133.956327599962,1174_01,,0,
1174_02,,香北農協前,,35.158289578434,133.956311506709,1174_02,,0,
1175_01,,香北局前,,35.1556671314922,133.948779134944,1175_01,,0,
1175_02,,香北局前,,35.1556090183222,133.948749630646,1175_02,,0,
1176_01,,岩滝上,,35.1517643603464,133.95172629346,1176_01,,0,
1176_02,,岩滝上,,35.1517725950299,133.951666215204,1176_02,,0,
1177_01,,岩滝,,35.146854915413,133.951629925053,1177_01,,0,
1177_02,,岩滝,,35.1468850717223,133.951587009711,1177_02,,0,
1178_01,,馬橋,,35.1437300016394,133.948592382526,1178_01,,0,
1178_02,,馬橋,,35.1437859300241,133.948544102767,1178_02,,0,
1179_01,,日下,,35.1405935351623,133.953221688099,1179_01,,0,
1179_02,,日下,,35.1405485713671,133.953200230428,1179_02,,0,
1180_01,,円通寺,,35.1340717709758,133.954446007434,1180_01,,0,
1180_02,,円通寺,,35.1340854805459,133.954382975524,1180_02,,0,
1181_01,,藤屋,,35.1275178598645,133.956072894987,1181_01,,0,
1181_02,,藤屋,,35.1275233738905,133.956023227053,1181_02,,0,
1182_01,,藤屋下,,35.1243921813231,133.958434202292,1182_01,,0,
1182_02,,藤屋下,,35.1244360571457,133.958378546458,1182_02,,0,
1183_01,,香々美上,,35.1202742878008,133.954999682439,1183_01,,0,
1183_02,,香々美上,,35.1202847088376,133.95495743765,1183_02,,0,
1184_01,,香々美,,35.1183610824086,133.953970662731,1184_01,,0,
1184_02,,香々美,,35.1183693097363,133.953924394629,1184_02,,0,
1185_01,,楮原,,35.1125199442857,133.949417426869,1185_01,,0,
1185_02,,楮原,,35.112540239814,133.949355736065,1185_02,,0,
1186_01,,和田橋,,35.1104322109287,133.946128329034,1186_01,,0,
1186_02,,和田橋,,35.1104656719786,133.946083402035,1186_02,,0,
1187_01,,大野橋,,35.1042421202368,133.940560714123,1187_01,,0,
1187_02,,大野橋,,35.1042602234929,133.940539256452,1187_02,,0,
1188_01,,円宗寺,,35.1014765875602,133.939161538617,1188_01,,0,
1188_02,,円宗寺,,35.1014881082054,133.939117282171,1188_02,,0,
1189_01,,釜の口,,35.0984908480405,133.936985081059,1189_01,,0,
1189_02,,釜の口,,35.0984970901897,133.936834917534,1189_02,,0,
1190_01,,原,,35.0822783349148,133.907986591325,1190_01,,0,
1190_02,,原,,35.0822183899936,133.908015918539,1190_02,,0,
1191_01,,千代口,,35.0821391773585,133.90335826737,1191_01,,0,
1191_02,,千代口,,35.0820799142492,133.903345526878,1191_02,,0,
1192_01,,森原,,35.0787841000911,133.912791788284,1192_01,,0,
1192_02,,森原,,35.0787242857894,133.912768318956,1192_02,,0,
1193_01,,下河原,,35.0766234391837,133.920212699756,1193_01,,0,
1193_02,,下河原,,35.0765625257583,133.92025025068,1193_02,,0,
1194_01,,東神戸,,35.0640521856717,133.944912688915,1194_01,,0,
1194_02,,東神戸,,35.0637473636523,133.945125706029,1194_02,,0,
1195_01,,作楽神社前,,35.0608783761771,133.949320972253,1195_01,,0,
1195_02,,作楽神社前,,35.0607218887379,133.949375164453,1195_02,,0,
1196_01,,作楽神社口,,35.060289384202,133.950865607639,1196_01,,0,
1197_01,,市営住宅口,,35.0609963375974,133.953472714793,1197_01,,0,
1197_02,,市営住宅口,,35.0610357733446,133.954253439089,1197_02,,0,
1198_01,,ウエストランド前,,35.0611974305115,133.959214421332,1198_01,,0,
1198_02,,ウエストランド前,,35.061105219775,133.959048124384,1198_02,,0,
1199_01,,二宮山西,,35.061133132647,133.962395921418,1199_01,,0,
1199_02,,二宮山西,,35.0610266511081,133.962688282182,1199_02,,0,
1200_01,,美和山古墳前,,35.0610527817378,133.966136491902,1200_01,,0,
1200_02,,美和山古墳前,,35.0609805238669,133.964590246066,1200_02,,0,
1201_01,,西中入口,,35.0609624661359,133.970656910798,1201_01,,0,
1201_02,,西中入口,,35.0608384203588,133.971177259325,1201_02,,0,
1202_01,,松中公民館前,,35.0612683371534,133.977128192766,1202_01,,0,
1202_02,,松中公民館前,,35.061104772939,133.976385220859,1202_02,,0,
1203_01,,御旅所,,35.0620037433986,133.981599939205,1203_01,,0,
1203_02,,御旅所,,35.0616046301117,133.980250493891,1203_02,,0,
1204_01,,小田中局前,,35.0628546805059,133.986905642484,1204_01,,0,
1204_02,,小田中局前,,35.062747103487,133.986791648609,1204_02,,0,
1205_01,,小田中,,35.0633055572124,133.99207081579,1205_01,,0,
1205_02,,小田中,,35.0630062432734,133.990780862836,1205_02,,0,
1206_01,,営林署前,,35.0650932974029,133.996942757322,1206_01,,0,
1206_02,,営林署前,,35.0649400292963,133.997584817792,1206_02,,0,
1207_01,,裁判所前,,35.0647044463038,134.001485010039,1207_01,,0,
1207_02,,裁判所前,,35.0645973722902,134.001611315817,1207_02,,0,
1208_01,,北町,,35.0651146922036,134.005206630273,1208_01,,0,
1208_02,,北町,,35.0650929589744,134.005364048749,1208_02,,0,
1209_01,,城北橋,,35.0680774680233,134.010618888705,1209_01,,0,
1209_02,,城北橋,,35.0678990862869,134.010530181092,1209_02,,0,
1210_01,,東小学校前,,35.0694873844011,134.008571497124,1210_01,,0,
1210_02,,東小学校前,,35.0695350776107,134.007974709418,1210_02,,0,
1211_01,,衆楽園・市役所前,,35.0695727767292,134.005157148915,1211_01,,0,
1211_02,,衆楽園・市役所前,,35.0696417942907,134.005163624841,1211_02,,0,
1212_01,,市役所西,,35.0686259735439,134.003237266267,1212_01,,0,
1212_02,,市役所西,,35.0688850176726,134.003152776679,1212_02,,0,
1213_01,,山北,,35.0675032425275,134.003313076134,1213_01,,0,
1213_02,,山北,,35.0678972012222,134.003219281624,1213_02,,0,
1214_01,,文化センター北口,,35.0651951583522,134.003117592594,1214_01,,0,
1214_02,,文化センター北口,,35.0651423451071,134.003006032096,1214_02,,0,
1215_01,,山下,,35.0625508497942,134.003112145168,1215_01,,0,
1215_02,,山下,,35.0632380766979,134.003059254162,1215_02,,0,
1216_01,,大手町,,35.0602242718932,134.003271437896,1216_01,,0,
1216_02,,大手町,,35.0601573085468,134.003208405988,1216_02,,0,
1217_01,,津山駅,,35.0549838506874,134.003012307418,1217_01,,0,
1301_01,,南小学校前,,35.076327198913,133.923857779158,1301_01,,0,
1301_02,,南小学校前,,35.0764117096626,133.923877225172,1301_02,,0,
1302_01,,上錦橋,,35.0761035430095,133.921456344275,1302_01,,0,
1302_02,,上錦橋,,35.0761046405552,133.921417452247,1302_02,,0,
1303_01,,野辺,,35.0688009416318,133.926514623609,1303_01,,0,
1303_02,,野辺,,35.0688322244797,133.926505235878,1303_02,,0,
1304_01,,平尾,,35.0684851757597,133.921661712236,1304_01,,0,
1304_02,,平尾,,35.0685235934392,133.921649642296,1304_02,,0,
1305_01,,竹峪,,35.0702553376815,133.916146878758,1305_01,,0,
1305_02,,竹峪,,35.0702503983714,133.916204546248,1305_02,,0,
1306_01,,下原上,,35.0727601864477,133.914593938399,1306_01,,0,
1306_02,,下原上,,35.0727809879759,133.914663947302,1306_02,,0,
1307_01,,郷農協前,,35.0801268320622,133.912085095911,1307_01,,0,
1307_02,,郷農協前,,35.0801295757913,133.912131364013,1307_02,,0,
1308_01,,郷幼稚園口,,35.0810035386708,133.909760960795,1308_01,,0,
1308_02,,郷幼稚園口,,35.081045242895,133.909748890856,1308_02,,0,
1309_01,,河本南,,35.0812230367272,133.901283933397,1309_01,,0,
1309_02,,河本南,,35.0812861416252,133.90128192174,1309_02,,0,
1310_01,,河本,,35.0821012368976,133.899085967503,1310_01,,0,
1310_02,,河本,,35.0821631758745,133.899080410443,1310_02,,0,
1311_01,,高山,,35.0849854554601,133.891388522437,1311_01,,0,
1311_02,,高山,,35.084941009683,133.891369746976,1311_02,,0,
1312_01,,松原,,35.0830066142844,133.902215259252,1312_01,,0,
1312_02,,松原,,35.0830022244726,133.902267562324,1312_02,,0,
1313_01,,崎原,,35.0851612054511,133.907077580788,1313_01,,0,
1313_02,,崎原,,35.0850942625639,133.907078921893,1313_02,,0,
1314_01,,寺村,,35.0883591039138,133.914824050649,1314_01,,0,
1314_02,,寺村,,35.088297004328,133.914873609626,1314_02,,0,
1314_03,,寺村,,35.0866681500404,133.914268169905,1314_03,,0,
1315_01,,瀬戸団地入口,,35.0940445146408,133.924639886874,1315_01,,0,
1315_02,,瀬戸団地入口,,35.0939814196133,133.924671402828,1315_02,,0,
29_01_1,高岡上,,34.915222,133.624389,29_01_1,0
29_01_2,高岡上,,34.915213,133.624513,29_01_2,0
29_02_1,高岡,,34.917815,133.625248,29_02_1,0
29_02_2,高岡,,34.917813,133.625351,29_02_2,0
29_03_1,大笠,,34.923735,133.628066,29_03_1,0
29_03_2,大笠,,34.92372,133.628161,29_03_2,0
29_04_1,藤田,,34.927509,133.629225,29_04_1,0
29_04_2,藤田,,34.927489,133.6293,29_04_2,0
29_05_1,清常上,,34.930288,133.632382,29_05_1,0
29_05_2,清常上,,34.930218,133.63248,29_05_2,0
29_06_1,清常,,34.932137,133.632586,29_06_1,0
29_06_2,清常,,34.932154,133.632684,29_06_2,0
29_07_1,平田,,34.937103,133.631467,29_07_1,0
29_07_2,平田,,34.937138,133.631512,29_07_2,0
29_08_1,定,,34.941049,133.629496,29_08_1,0
29_08_2,定,,34.941064,133.629536,29_08_2,0
29_09_1,中津井,,34.945113,133.627278,29_09_1,0
29_09_2,中津井,,34.945124,133.627327,29_09_2,0
29_10_1,下中津井,,34.94676,133.62727,29_10_1,0
29_10_2,下中津井,,34.946769,133.627336,29_10_2,0
29_11_1,蟹川上,,34.951484,133.628032,29_11_1,0
29_11_2,蟹川上,,34.951547,133.628263,29_11_2,0
29_12_1,蟹川,,34.955695,133.630107,29_12_1,0
29_12_2,蟹川,,34.955602,133.630168,29_12_2,0
29_13_1,呰部,,34.96207,133.630315,29_13_1,0
29_13_2,呰部,,34.962123,133.63035,29_13_2,0
29_14_1,北房小学校前,,34.963024,133.632677,29_14_1,0
29_14_2,北房小学校前,,34.963042,133.632158,29_14_2,0
29_15_1,安末,,34.962172,133.636776,29_15_1,0
29_15_2,安末,,34.962089,133.636749,29_15_2,0
29_16_1,北房中学校前,,34.964014,133.640323,29_16_1,0
29_16_2,北房中学校前,,34.96392,133.640333,29_16_2,0
29_17_1,畑ヶ中,,34.965384,133.643005,29_17_1,0
29_17_2,畑ヶ中,,34.965329,133.64304,29_17_2,0
29_18_1,谷尻,,34.967921,133.648367,29_18_1,0
29_18_2,谷尻,,34.967346,133.648154,29_18_2,0
29_19_1,井尾口,,34.969942,133.651631,29_19_1,0
29_19_2,井尾口,,34.969652,133.651105,29_19_2,0
29_20_1,中田原,,34.970735,133.653895,29_20_1,0
29_20_2,中田原,,34.970649,133.653903,29_20_2,0
29_21_1,北房インター,,34.972196,133.657297,29_21_1,0
29_21_2,北房インター,,34.972122,133.657342,29_21_2,0
29_22_1,五名,,34.97495,133.661132,29_22_1,0
29_22_2,五名,,34.974922,133.661319,29_22_2,0
29_23_1,荒迫,,34.975305,133.664956,29_23_1,0
29_23_2,荒迫,,34.97524,133.664959,29_23_2,0
29_24_1,山田,,34.975412,133.670077,29_24_1,0
29_24_2,山田,,34.975308,133.670377,29_24_2,0
29_25_1,水田校口,,34.976086,133.676889,29_25_1,0
29_25_2,水田校口,,34.976047,133.676924,29_25_2,0
29_26_1,水田新町,,34.978479,133.678864,29_26_1,0
29_26_2,水田新町,,34.97849,133.6789,29_26_2,0
29_27_1,水田下町,,34.980058,133.678966,29_27_1,0
29_27_2,水田下町,,34.98006,133.679006,29_27_2,0
29_28_1,境入口,,34.982735,133.682133,29_28_1,0
29_28_2,境入口,,34.982619,133.681977,29_28_2,0
29_29_1,湯川,,34.984843,133.686353,29_29_1,0
29_29_2,湯川,,34.984721,133.686287,29_29_2,0
29_30_1,湯神,,34.987213,133.689082,29_30_1,0
29_30_2,湯神,,34.986834,133.688871,29_30_2,0
29_31_1,美川橋,,34.989469,133.694937,29_31_1,0
29_31_2,美川橋,,34.989405,133.694934,29_31_2,0
29_32_1,鹿の峰,,34.988339,133.698673,29_32_1,0
29_32_2,鹿の峰,,34.988315,133.698651,29_32_2,0
29_33_1,大柳,,34.986049,133.703538,29_33_1,0
29_33_2,大柳,,34.986018,133.703503,29_33_2,0
29_34_1,サツキ橋,,34.984248,133.705635,29_34_1,0
29_34_2,サツキ橋,,34.984218,133.7056,29_34_2,0
29_35_1,余河内,,34.984021,133.713785,29_35_1,0
29_35_2,余河内,,34.98397,133.713867,29_35_2,0
29_36_1,やこうげ,,34.985862,133.717824,29_36_1,0
29_36_2,やこうげ,,34.9858,133.717877,29_36_2,0
29_37_1,鹿田,,34.990174,133.727498,29_37_1,0
29_37_2,鹿田,,34.990145,133.727581,29_37_2,0
29_38_1,勇山寺,,34.992303,133.728508,29_38_1,0
29_38_2,勇山寺,,34.992301,133.728564,29_38_2,0
29_39_1,畝,,35.000722,133.735899,29_39_1,0
29_39_2,畝,,35.000679,133.735963,29_39_2,0
29_41_1,下方,,35.005204,133.735216,29_41_1,0
29_41_2,下方,,35.005208,133.735303,29_41_2,0
29_42_1,落合中学校前,,35.008448,133.735423,29_42_1,0
29_42_2,落合中学校前,,35.008355,133.735488,29_42_2,0
29_43_1,木山鳥居前,,35.011821,133.739956,29_43_1,0
29_43_2,木山鳥居前,,35.011753,133.740035,29_43_2,0
29_44_1,天神前,,35.013541,133.744886,29_44_1,0
29_44_2,天神前,,35.013534,133.744954,29_44_2,0
29_45_1,落合総合センター,,35.014439,133.748176,29_45_1,0
29_45_2,落合総合センター,,35.014439,133.748176,29_45_2,0
29_46_1,落合小学校前,,35.015395,133.747479,29_46_1,0
29_46_2,落合小学校前,,35.015342,133.747597,29_46_2,0
29_47_1,栄町,,35.016635,133.749358,29_47_1,0
29_47_2,栄町,,35.016834,133.749791,29_47_2,0
29_48_1,プラムタウン真庭,,35.016092,133.750646,29_48_1,0
29_48_2,プラムタウン真庭,,35.016719,133.750529,29_48_2,0
29_48_3,プラムタウン真庭,,35.0154732098021,133.750220688232,29_48_3,0
29_49_1,真庭高校落合校地前,,35.018102,133.752563,29_49_1,0
29_49_2,真庭高校落合校地前,,35.017938,133.752779,29_49_2,0
29_50_1,米沢町十字路,,35.018679,133.750591,29_50_1,0
29_50_2,米沢町十字路,,35.018668,133.750665,29_50_2,0
29_51_1,落合上町,,35.020709,133.751771,29_51_1,0
29_51_2,落合上町,,35.020717,133.751661,29_51_2,0
29_52_1,金田病院前,,35.020416,133.755568,29_52_1,0
29_52_2,金田病院前,,35.020319,133.755605,29_52_2,0
29_53_1,美作落合駅,,35.023211,133.759528,29_53_1,0
29_53_2,美作落合駅,,35.023211,133.759528,29_53_2,0
29_57_1,落合インター,,35.026145,133.750686,29_57_1,0
29_57_2,落合インター,,35.025784,133.750713,29_57_2,0
29_58_1,上市瀬,,35.036982,133.753815,29_58_1,0
29_58_2,上市瀬,,35.036987,133.753907,29_58_2,0
29_60_1,開田,,35.044198,133.753354,29_60_1,0
29_60_2,開田,,35.044275,133.75345,29_60_2,0
29_61_1,福田橋,,35.050782,133.75272,29_61_1,0
29_61_2,福田橋,,35.050783,133.752807,29_61_2,0
29_62_1,中村,,35.055564,133.752245,29_62_1,0
29_62_2,中村,,35.055575,133.75235,29_62_2,0
29_63_1,紙屋,,35.060691,133.751736,29_63_1,0
29_63_2,紙屋,,35.060716,133.751854,29_63_2,0
29_64_1,富尾下,,35.063044,133.751502,29_64_1,0
29_64_2,富尾下,,35.06304,133.751621,29_64_2,0
29_65_1,富尾,,35.066672,133.751165,29_65_1,0
29_65_2,富尾,,35.066683,133.75131,29_65_2,0
29_66_1,真庭高校久世校地前,,35.070647,133.749574,29_66_1,0
29_66_2,真庭高校久世校地前,,35.069947,133.749973,29_66_2,0
29_67_1,落合病院,,35.027715,133.747829,29_67_1,0
29_67_2,落合病院,,35.027715,133.747829,29_67_2,0
90_01_1,真庭市役所,,35.075732,133.752955,90_01_1,0
90_01_2,真庭市役所,,35.075732,133.752955,90_01_2,0
30_01_1,梨瀬,,35.192738,133.567679,30_01_1,0
30_01_2,梨瀬,,35.192738,133.567679,30_01_2,0
30_02_1,高橋,,35.187846,133.567231,30_02_1,0
30_02_2,高橋,,35.187862,133.567126,30_02_2,0
30_03_1,鍛冶屋,,35.181197,133.568988,30_03_1,0
30_03_2,鍛冶屋,,35.181222,133.56893,30_03_2,0
30_04_1,新庄村役場前,,35.179717,133.568036,30_04_1,0
30_04_2,新庄村役場前,,35.179717,133.568036,30_04_2,0
30_05_1,道の駅新庄前,,35.175524,133.571593,30_05_1,0
30_05_2,道の駅新庄前,,35.175258,133.571484,30_05_2,0
30_06_1,茅見口,,35.172886,133.572971,30_06_1,0
30_06_2,茅見口,,35.172797,133.572778,30_06_2,0
30_07_1,長床,,35.168776,133.579853,30_07_1,0
30_07_2,長床,,35.168782,133.579742,30_07_2,0
30_08_1,大所,,35.16392,133.579338,30_08_1,0
30_08_2,大所,,35.163364,133.579596,30_08_2,0
30_09_1,羽仁,,35.16289,133.586533,30_09_1,0
30_09_2,羽仁,,35.162659,133.586218,30_09_2,0
30_10_1,野尾,,35.164205,133.595707,30_10_1,0
30_10_2,野尾,,35.164119,133.595718,30_10_2,0
30_11_1,平島上,,35.163755,133.599899,30_11_1,0
30_11_2,平島上,,35.163663,133.599892,30_11_2,0
30_12_1,平島,,35.1634,133.602921,30_12_1,0
30_12_2,平島,,35.163341,133.602896,30_12_2,0
30_13_1,平島下,,35.162841,133.606309,30_13_1,0
30_13_2,平島下,,35.162762,133.606303,30_13_2,0
30_14_1,河田口,,35.161284,133.608947,30_14_1,0
30_14_2,河田口,,35.161171,133.608975,30_14_2,0
30_15_1,当政,,35.158673,133.61247,30_15_1,0
30_15_2,当政,,35.158621,133.612369,30_15_2,0
30_16_1,美甘こども園前,,35.156291,133.61587,30_16_1,0
30_16_2,美甘こども園前,,35.156256,133.615732,30_16_2,0
30_17_1,美甘小学校前,,35.157371,133.621612,30_17_1,0
30_17_2,美甘小学校前,,35.157313,133.62223,30_17_2,0
30_18_1,美甘振興局前,,35.15749,133.623568,30_18_1,0
30_18_2,美甘振興局前,,35.157387,133.623847,30_18_2,0
30_19_1,只口,,35.152326,133.628794,30_19_1,0
30_19_2,只口,,35.152332,133.628685,30_19_2,0
30_20_1,首切,,35.144987,133.632358,30_20_1,0
30_20_2,首切,,35.144941,133.632264,30_20_2,0
30_21_1,出雲瀧,,35.1386066802994,133.632100668369,30_21_1,0
30_21_2,出雲瀧,,35.138643,133.631968,30_21_2,0
30_22_1,太井の坂,,35.133982,133.632752,30_22_1,0
30_22_2,太井の坂,,35.133992,133.632568,30_22_2,0
30_23_1,湯谷,,35.128332,133.631496,30_23_1,0
30_23_2,湯谷,,35.128243,133.631438,30_23_2,0
30_24_1,田口,,35.123369,133.630894,30_24_1,0
30_24_2,田口,,35.123352,133.630752,30_24_2,0
30_25_1,延風,,35.119707,133.632804,30_25_1,0
30_25_2,延風,,35.119741,133.632581,30_25_2,0
30_26_1,八反,,35.110953,133.641936,30_26_1,0
30_26_2,八反,,35.110825,133.642026,30_26_2,0
30_27_1,四季桜,,35.102015,133.649804,30_27_1,0
30_27_2,四季桜,,35.102109,133.649391,30_27_2,0
30_28_1,塚本,,35.098548,133.653323,30_28_1,0
30_28_2,塚本,,35.100212,133.652635,30_28_2,0
30_29_1,神代,,35.093961,133.653085,30_29_1,0
30_29_2,神代,,35.093944,133.652962,30_29_2,0
30_30_1,上支富田,,35.090497,133.6503,30_30_1,0
30_30_2,上支富田,,35.090038,133.649471,30_30_2,0
30_31_1,支富田,,35.08342,133.647102,30_31_1,0
30_31_2,支富田,,35.084037,133.646798,30_31_2,0
30_32_1,重則,,35.066631,133.652455,30_32_1,0
30_32_2,重則,,35.066691,133.652304,30_32_2,0
30_33_1,荒田,,35.065172,133.656727,30_33_1,0
30_33_2,荒田,,35.065111,133.657381,30_33_2,0
30_34_1,荒田橋,,35.064358,133.66345,30_34_1,0
30_34_2,荒田橋,,35.064237,133.663554,30_34_2,0
30_35_1,上江川,,35.069117,133.678179,30_35_1,0
30_35_2,上江川,,35.069018,133.678251,30_35_2,0
30_36_1,江川,,35.075824,133.685291,30_36_1,0
30_36_2,江川,,35.075746,133.685339,30_36_2,0
30_37_1,勝山大橋,,35.07866,133.690699,30_37_1,0
30_37_2,勝山大橋,,35.078457,133.690583,30_37_2,0
90_02_1,中国勝山駅,,35.080485,133.694123,90_02_1,0
90_02_2,中国勝山駅,,35.080485,133.694123,90_02_2,0
90_03_1,勝山高校前,,35.083151,133.6968,90_03_1,0
90_03_2,勝山高校前,,35.082975,133.696806,90_03_2,0
90_04_1,原,,35.085136,133.702898,90_04_1,0
90_04_2,原,,35.085046,133.7029,90_04_2,0
90_05_1,野白,,35.082474,133.72814,90_05_1,0
90_05_2,野白,,35.082402,133.728105,90_05_2,0
90_06_1,黒尾,,35.081489,133.731748,90_06_1,0
90_06_2,黒尾,,35.08145,133.731614,90_06_2,0
90_07_1,グンゼ前,,35.07986,133.737775,90_07_1,0
90_07_2,グンゼ前,,35.079767,133.737733,90_07_2,0
90_08_1,久世駅前,,35.079362,133.745823,90_08_1,0
90_08_2,久世駅前,,35.079256,133.745854,90_08_2,0
90_09_1,久世中央,,35.078546,133.747682,90_09_1,0
90_09_2,久世中央,,35.078463,133.747649,90_09_2,0
30_46_1,ゆめタウン前,,35.073327,133.747633,30_46_1,0
30_46_2,ゆめタウン前,,35.072315,133.748282,30_46_2,0
31_01_1,蒜山高原（休暇村前）,,35.293541,133.630893,31_01_1,0
31_01_2,蒜山高原（休暇村前）,,35.293541,133.630893,31_01_2,0
31_02_1,湯船口,,35.297843,133.632796,31_02_1,0
31_02_2,湯船口,,35.297813,133.632701,31_02_2,0
31_03_1,蒜山高原センター前,,35.291651,133.636206,31_03_1,0
31_03_2,蒜山高原センター前,,35.291596,133.636107,31_03_2,0
31_04_1,上福田,,35.281184,133.636854,31_04_1,0
31_04_2,上福田,,35.282197,133.637118,31_04_2,0
31_05_1,おおくに歯科医院前,,35.279573,133.642318,31_05_1,0
31_05_2,おおくに歯科医院前,,35.279476,133.642217,31_05_2,0
31_06_1,堂の前,,35.279199,133.645507,31_06_1,0
31_06_2,堂の前,,35.279124,133.645508,31_06_2,0
31_07_1,富先,,35.278533,133.651425,31_07_1,0
31_07_2,富先,,35.278474,133.651411,31_07_2,0
31_08_1,中福田,,35.278914,133.655272,31_08_1,0
31_08_2,中福田,,35.278846,133.655356,31_08_2,0
31_09_1,中福田下,,35.281375,133.660933,31_09_1,0
31_09_2,中福田下,,35.281281,133.660953,31_09_2,0
31_10_1,富掛田,,35.280858,133.666099,31_10_1,0
31_10_2,富掛田,,35.28079,133.666117,31_10_2,0
31_11_1,富山根上,,35.28013,133.674881,31_11_1,0
31_11_2,富山根上,,35.280044,133.674937,31_11_2,0
31_12_1,富山根,,35.280675,133.677413,31_12_1,0
31_12_2,富山根,,35.280584,133.677455,31_12_2,0
31_13_1,蒜山中学校前,,35.281762,133.682829,31_13_1,0
31_13_2,蒜山中学校前,,35.281676,133.682836,31_13_2,0
31_14_1,蒜山振興局(蒜山図書館),,35.28261,133.687995,31_14_1,0
31_14_2,蒜山振興局(蒜山図書館),,35.28261,133.687995,31_14_2,0
31_15_1,渕ノ上,,35.282958,133.695114,31_15_1,0
31_15_2,渕ノ上,,35.282898,133.695193,31_15_2,0
31_16_1,吉森,,35.284624,133.697143,31_16_1,0
31_16_2,吉森,,35.284569,133.697209,31_16_2,0
31_17_1,飯守,,35.287281,133.700899,31_17_1,0
31_17_2,飯守,,35.2872,133.700931,31_17_2,0
31_19_1,道目木,,35.289092,133.711316,31_19_1,0
31_19_2,道目木,,35.288994,133.711333,31_19_2,0
31_20_1,花園,,35.290502,133.719313,31_20_1,0
31_20_2,花園,,35.290399,133.719344,31_20_2,0
31_21_1,スポーツセンター前,,35.291563,133.729129,31_21_1,0
31_21_2,スポーツセンター前,,35.291468,133.729155,31_21_2,0
31_22_1,馬橋,,35.291583,133.731746,31_22_1,0
31_22_2,馬橋,,35.291495,133.731726,31_22_2,0
31_23_1,上在所,,35.286956,133.736674,31_23_1,0
31_23_2,上在所,,35.286923,133.73661,31_23_2,0
31_24_1,山根,,35.285152,133.738352,31_24_1,0
31_24_2,山根,,35.28513,133.738237,31_24_2,0
31_25_1,原林口,,35.282498,133.740262,31_25_1,0
31_25_2,原林口,,35.282517,133.740123,31_25_2,0
31_26_1,栃ノ木,,35.272513,133.734294,31_26_1,0
31_26_2,栃ノ木,,35.272561,133.734229,31_26_2,0
31_27_1,宮田,,35.2697808,133.7289122,31_27_1,0
31_27_2,宮田,,35.2698993,133.7287724,31_27_2,0
31_28_1,野田,,35.2555955690526,133.733275317454,31_28_1,0
31_28_2,野田,,35.255761,133.732903,31_28_2,0
31_29_1,初和,,35.247509,133.745532,31_29_1,0
31_29_2,初和,,35.247442,133.745059,31_29_2,0
31_30_1,不動滝,,35.221928,133.749266,31_30_1,0
31_30_2,不動滝,,35.222422,133.749369,31_30_2,0
31_31_1,田羽根上,,35.215216,133.74675,31_31_1,0
31_31_2,田羽根上,,35.215204,133.746686,31_31_2,0
31_32_1,田羽根下,,35.213172,133.745239,31_32_1,0
31_32_2,田羽根下,,35.213211,133.745176,31_32_2,0
31_33_1,佐山,,35.200939,133.732713,31_33_1,0
31_33_2,佐山,,35.200952,133.732643,31_33_2,0
31_34_1,湯原温泉,,35.200115,133.732513,31_34_1,0
31_34_2,湯原温泉,,35.200115,133.732513,31_34_2,0
31_35_1,湯原大橋,,35.198334,133.73316,31_35_1,0
31_35_2,湯原大橋,,35.198382,133.733134,31_35_2,0
31_36_1,湯原振興局前,,35.195495,133.731554,31_36_1,0
31_36_2,湯原振興局前,,35.195528,133.731478,31_36_2,0
31_37_1,はんざき橋,,35.191115,133.731616,31_37_1,0
31_37_2,はんざき橋,,35.191277,133.731503,31_37_2,0
31_38_1,湯原温泉病院,,35.187954,133.733939,31_38_1,0
31_38_2,湯原温泉病院,,35.187954,133.733939,31_38_2,0
31_39_1,社口,,35.182838,133.738248,31_39_1,0
31_39_2,社口,,35.182879,133.738132,31_39_2,0
31_40_1,湯原中学校前,,35.175336,133.72947,31_40_1,0
31_40_2,湯原中学校前,,35.175502,133.729246,31_40_2,0
31_41_1,禾津,,35.173704,133.729729,31_41_1,0
31_41_2,禾津,,35.173475,133.729817,31_41_2,0
31_42_1,禾津局前,,35.170008,133.731869,31_42_1,0
31_42_2,禾津局前,,35.169819,133.731742,31_42_2,0
31_43_1,牧,,35.158893,133.72815,31_43_1,0
31_43_2,牧,,35.158918,133.728012,31_43_2,0
31_44_1,久納,,35.151585,133.716793,31_44_1,0
31_44_2,久納,,35.150683,133.716008,31_44_2,0
31_45_1,日の谷,,35.146609,133.718058,31_45_1,0
31_45_2,日の谷,,35.146594,133.717901,31_45_2,0
31_46_1,足温泉前,,35.142916,133.717714,31_46_1,0
31_46_2,足温泉前,,35.141815,133.717289,31_46_2,0
31_47_1,真賀温泉前,,35.137151,133.714551,31_47_1,0
31_47_2,真賀温泉前,,35.137491,133.715315,31_47_2,0
31_48_1,西畑口,,35.134372,133.705246,31_48_1,0
31_48_2,西畑口,,35.134434,133.705199,31_48_2,0
31_49_1,見尾,,35.12873,133.709496,31_49_1,0
31_49_2,見尾,,35.128707,133.709415,31_49_2,0
31_50_1,下真賀,,35.120923,133.711573,31_50_1,0
31_50_2,下真賀,,35.121,133.711523,31_50_2,0
31_51_1,山久世,,35.105726,133.716208,31_51_1,0
31_51_2,山久世,,35.105231,133.716315,31_51_2,0
31_52_1,柴原中,,35.098952,133.713906,31_52_1,0
31_52_2,柴原中,,35.099071,133.713837,31_52_2,0
31_53_1,柴原,,35.098709,133.708952,31_53_1,0
31_53_2,柴原,,35.098809,133.708965,31_53_2,0
31_54_1,荒井橋,,35.101252,133.703754,31_54_1,0
31_54_2,荒井橋,,35.101594,133.703916,31_54_2,0
31_55_1,神庭口,,35.0968,133.697279,31_55_1,0
31_55_2,神庭口,,35.09665,133.697264,31_55_2,0
31_56_1,横部,,35.093066,133.694459,31_56_1,0
31_56_2,横部,,35.093072,133.693827,31_56_2,0
31_57_1,組入口,,35.091947,133.689927,31_57_1,0
31_57_2,組入口,,35.091652,133.689469,31_57_2,0
31_58_1,本郷,,35.086138,133.689607,31_58_1,0
31_58_2,本郷,,35.084583,133.689516,31_58_2,0
31_59_1,勝山大橋,,35.079161,133.689885,31_59_1,0
31_59_2,勝山大橋,,35.079008,133.689766,31_59_2,0
3101_01,,勝間田駅,,35.0358055259435,134.119376541229,3101_01,,0,
3102_01,,勝間田高校,,35.0404613610974,134.119742497674,3102_01,,0,
3102_02,,勝間田高校,,35.0405074781339,134.119739815466,3102_02,,0,
3103_01,,黒土上,,35.0293385171579,134.130021463497,3103_01,,0,
3103_02,,黒土上,,35.0293775023415,134.130059014421,3103_02,,0,
3104_01,,林野高校,,35.0011960743202,134.150223734123,3104_01,,0,
3105_01,,栄町,,35.008576013484,134.14936463672,3105_01,,0,
3106_01,,林野駅前,,35.0126625140387,134.150933924379,3106_01,,0,
3107_01,,明見東,,35.0155671861426,134.152186733927,3107_01,,0,
3107_02,,明見東,,35.0157141264593,134.152153124916,3107_02,,0,
3108_01,,ナンバ美作店前,,35.0186938563035,134.157603651225,3108_01,,0,
3108_02,,ナンバ美作店前,,35.0188344408155,134.157515138333,3108_02,,0,
3109_01,,豊国原,,35.0207913688131,134.160016394208,3109_01,,0,
3109_02,,豊国原,,35.0211687906544,134.160222981584,3109_02,,0,
3110_01,,美作インター,,35.0239894528961,134.163013071745,3110_01,,0,
3110_02,,美作インター,,35.0242618175366,134.163092196943,3110_02,,0,
3111_01,,北山,,35.0269781718465,134.165477132608,3111_01,,0,
3111_02,,北山,,35.0270748758143,134.165376678081,3111_02,,0,
3112_01,,吉,,35.0360389217177,134.174701459113,3112_01,,0,
3112_02,,吉,,35.0360718642436,134.174665249294,3112_02,,0,
3113_01,,一色橋,,35.0434362923595,134.180023965967,3113_01,,0,
3113_02,,一色橋,,35.0434719768644,134.179993120565,3113_02,,0,
3114_01,,和田,,35.0458925622087,134.182677828205,3114_01,,0,
3114_02,,和田,,35.0461440730316,134.182887596373,3114_02,,0,
3115_01,,広山口,,35.047511361058,134.184146089803,3115_01,,0,
3115_02,,広山口,,35.0477807499835,134.183776667344,3115_02,,0,
3116_01,,矢田下,,35.0567408483881,134.189350136744,3116_01,,0,
3116_02,,矢田下,,35.0567890858997,134.189315836639,3116_02,,0,
3117_01,,矢田,,35.0610103601307,134.190954011369,3117_01,,0,
3117_02,,矢田,,35.0610279241089,134.1908876267,3117_02,,0,
3118_01,,小畑,,35.0652538330533,134.191462754871,3118_01,,0,
3118_02,,小畑,,35.0657217070127,134.191429806141,3118_02,,0,
3119_01,,河内,,35.068273187974,134.192030967078,3119_01,,0,
3119_02,,河内,,35.0682836156587,134.191977322901,3119_02,,0,
3120_01,,南町,,35.0730955018343,134.192270417098,3120_01,,0,
3120_02,,南町,,35.0730345857753,134.192215431816,3120_02,,0,
3121_01,,真加部下,,35.0767888002103,134.191181969927,3121_01,,0,
3121_02,,真加部下,,35.0768777006233,134.191049200589,3121_02,,0,
3122_01,,真加部上,,35.0786944709541,134.192439175435,3122_01,,0,
3123_01,,観音堂,,35.0807993620057,134.193383000153,3123_01,,0,
3123_02,,観音堂,,35.080803751936,134.193311251067,3123_02,,0,
3124_01,,屯地,,35.095843923574,134.182813262373,3124_01,,0,
3124_02,,屯地,,35.0958380639322,134.182745757689,3124_02,,0,
3125_01,,金面,,35.1033080825831,134.17897521267,3125_01,,0,
3125_02,,金面,,35.1033223459183,134.178900110823,3125_02,,0,
3126_01,,油尾,,35.1101973757538,134.179765840304,3126_01,,0,
3126_02,,油尾,,35.1101880505139,134.179663245816,3126_02,,0,
3127_01,,柿,,35.1145865074505,134.176997100092,3127_01,,0,
3127_02,,柿,,35.114870455755,134.176941027931,3127_02,,0,
3128_01,,奈義小前,,35.1178532152957,134.177964866831,3128_01,,0,
3128_02,,奈義小前,,35.1182679347679,134.177823182887,3128_02,,0,
3129_01,,豊沢,,35.1218067521315,134.178902715925,3129_01,,0,
3129_02,,豊沢,,35.1217539943706,134.178759491483,3129_02,,0,
3130_01,,ナギテラス,,35.1220025517411,134.176628049152,3130_01,,0,
104_01,,大畑,,35.036908,133.537446,104_01,,0,
104_02,,大畑,,35.036843,133.537726,104_02,,0,
105_01,,新田（大佐）,,35.039124,133.543261,105_01,,0,
105_02,,新田（大佐）,,35.039055,133.54334,105_02,,0,
106_01,,今井三差路,,35.043405,133.550121,106_01,,0,
106_02,,今井三差路,,35.043299,133.550169,106_02,,0,
107_01,,丹治部駅,,35.046109,133.552421,107_01,,0,
107_02,,丹治部駅,,35.046083,133.552509,107_02,,0,
108_01,,仲屋,,35.056814,133.556764,108_01,,0,
108_02,,仲屋,,35.056788,133.556869,108_02,,0,
109_01,,奥谷,,35.066931,133.549083,109_01,,0,
110_01,,うるし原,,35.062991,133.55329,110_01,,0,
111_01,,京明,,35.060049,133.559566,111_01,,0,
111_02,,京明,,35.059974,133.559675,111_02,,0,
112_01,,平松,,35.064172,133.563521,112_01,,0,
112_02,,平松,,35.064184,133.563627,112_02,,0,
113_01,,小南,,35.068681,133.562375,113_01,,0,
113_02,,小南,,35.0687,133.562494,113_02,,0,
114_01,,金藤,,35.072389,133.563761,114_01,,0,
114_02,,金藤,,35.072367,133.563837,114_02,,0,
115_01,,刑部駅,,35.076082,133.565606,115_01,,0,
116_01,,大佐診療所,,35.078884,133.565167,116_01,,0,
116_02,,大佐診療所,,35.078998,133.565109,116_02,,0,
117_01,,エイトプラザ,,35.080771,133.564749,117_01,,0,
117_02,,エイトプラザ,,35.080751,133.564872,117_02,,0,
118_01,,農協大佐支所,,35.083776,133.56582,118_01,,0,
118_02,,農協大佐支所,,35.083757,133.565928,118_02,,0,
119_01,,永富会館,,35.083593,133.570356,119_01,,0,
119_02,,永富会館,,35.083567,133.570255,119_02,,0,
120_01,,刑部小学校,,35.080354,133.571947,120_01,,0,
120_02,,刑部小学校,,35.080406,133.571889,120_02,,0,
121_01,,東町,　,35.082444,133.568707,121_01,,0,
121_02,,東町,,35.082482,133.568697,121_02,,0,
122_01,,角西井交差点,,35.082596,133.56724,122_01,,0,
123_01,,南町交差点,,35.079513,133.566888,123_01,,0,
123_02,,南町交差点,,35.079573,133.56681,123_02,,0,
125_01,,大佐中学校前,,35.079371,133.568542,125_01,,0,
125_02,,大佐中学校前,,35.079225,133.568461,125_02,,0,
126_02,,赤松,,35.13971,133.53279,126_02,,0,
127_01,,君山三坂,,35.181064,133.515145,127_01,,0,
128_02,,君山,,35.175469,133.513634,128_02,,0,
129_01,,伏谷,,35.159993,133.502757,129_01,,0,
130_02,,伏谷口,,35.158766,133.509829,130_02,,0,
131_01,,中組上,,35.142129,133.49951,131_01,,0,
132_01,,中組,,35.142682,133.504103,132_01,,0,
132_02,,中組,,35.142633,133.504095,132_02,,0,
133_01,,下組,,35.140594,133.510329,133_01,,0,
133_02,,下組,,35.140537,133.510309,133_02,,0,
134_01,,下組下,,35.134575,133.51968,134_01,,0,
134_02,,下組下,,35.134562,133.519624,134_02,,0,
135_01,,御洞分れ,,35.123588,133.542322,135_01,,0,
135_02,,御洞分れ,,35.123458,133.542364,135_02,,0,
136_01,,つづら畑口,,35.117798,133.543021,136_01,,0,
136_02,,つづら畑口,,35.117789,133.543,136_02,,0,
137_01,,定藤,,35.112371,133.562162,137_01,,0,
137_02,,定藤,,35.112337,133.562069,137_02,,0,
138_01,,夏日,,35.100987,133.530398,138_01,,0,
139_01,,徳定橋,,35.102812,133.534967,139_01,,0,
139_02,,徳定橋,,35.102763,133.53503,139_02,,0,
140_01,,大津会館,,35.10674,133.546456,140_01,,0,
140_02,,大津会館,,35.106697,133.546483,140_02,,0,
141_01,,落合,,35.108009,133.560565,141_01,,0,
141_02,,落合,,35.107961,133.560591,141_02,,0,
142_01,,しの原,,35.103062,133.567097,142_01,,0,
142_02,,しの原,,35.103042,133.566986,142_02,,0,
143_01,,千谷,,35.089381,133.568076,143_01,,0,
143_02,,千谷,,35.089403,133.56801,143_02,,0,
144_01,,宗貞,,35.029171,133.584534,144_01,,0,
145_02,,湯井,,34.998688,133.564743,145_02,,0,
146_01,,勘定下,,35.002424,133.562817,146_01,,0,
146_02,,勘定下,,35.002414,133.562856,146_02,,0,
147_01,,勘定,,35.001781,133.567089,147_01,,0,
147_02,,勘定,,35.001728,133.567062,147_02,,0,
148_01,,神場,,35.004674,133.571988,148_01,,0,
148_02,,神場,,35.004646,133.572055,148_02,,0,
149_01,,留倉,,35.008911,133.572518,149_01,,0,
149_02,,留倉,,35.008952,133.572606,149_02,,0,
150_01,,やな草橋,,35.016749,133.577511,150_01,,0,
150_02,,やな草橋,,35.016719,133.577555,150_02,,0,
151_01,,旧布瀬小学校前,,35.020857,133.578034,151_01,,0,
151_02,,旧布瀬小学校前,,35.020881,133.578272,151_02,,0,
152_01,,布瀬,,35.022677,133.578071,152_01,,0,
152_02,,布瀬,,35.022664,133.578184,152_02,,0,
153_01,,松坂橋,,35.02682,133.575599,153_01,,0,
153_02,,松坂橋,,35.026747,133.57578,153_02,,0,
154_01,,新殿,,35.038732,133.575557,154_01,,0,
154_02,,新殿,,35.038749,133.575698,154_02,,0,
155_01,,浦児,,35.046517,133.575707,155_01,,0,
155_02,,浦児,,35.04652,133.575757,155_02,,0,
156_01,,河内,,35.054694,133.576172,156_01,,0,
156_02,,河内,,35.054721,133.5763,156_02,,0,
157_01,,安藤橋,,35.059911,133.575276,157_01,,0,
157_02,,安藤橋,,35.059935,133.575398,157_02,,0,
158_01,,山影,,35.067838,133.566926,158_01,,0,
158_02,,山影,,35.067793,133.566967,158_02,,0,
159_01,,中曽市営住宅,,35.073659,133.56633,159_01,,0,
159_02,,中曽市営住宅,,35.073658,133.566387,159_02,,0,
160_01,,交流センター,,35.073751,133.568072,160_01,,0,
160_02,,交流センター,,35.073698,133.568081,160_02,,0,
161_01,,平口,,35.073403,133.571005,161_01,,0,
161_02,,平口,,35.073359,133.570965,161_02,,0,
162_01,,郷尾口,,35.075911,133.572583,162_01,,0,
162_02,,郷尾口,,35.075969,133.572723,162_02,,0,
163_01,,是森下,,35.078189,133.570879,163_01,,0,
163_02,,是森下,,35.078211,133.57096,163_02,,0,
313_02,,足立駅前,,35.038508,133.384525,313_02,,0,
314_02,,足立郵便局前,,35.042422,133.384111,314_02,,0,
315_02,,足立上,,35.045524,133.383211,315_02,,0,
316_01,,東田口,,35.095506,133.414771,316_01,,0,
317_02,,田口,,35.094799,133.41096,317_02,,0,
318_02,,大忠,,35.084228,133.406763,318_02,,0,
319_02,,三坂上,,35.07731,133.401139,319_02,,0,
320_02,,三坂,,35.080409,133.397539,320_02,,0,
321_02,,竹谷,,35.08244,133.391474,321_02,,0,
322_02,,押合,,35.087875,133.386499,322_02,,0,
323_02,,奥谷口,,35.09377,133.382436,323_02,,0,
324_02,,三ケ市,,35.092557,133.379264,324_02,,0,
325_02,,神郷北小学校前,,35.089754,133.37308,325_02,,0,
326_02,,診療所前,,35.089646,133.369392,326_02,,0,
327_02,,下和忠,,35.09007,133.36778,327_02,,0,
328_01,,新郷駅,,35.082669,133.367835,328_01,,0,
329_01,,神代駅前,,34.994626,133.400878,329_01,,0,
330_02,,新市,,34.995977,133.397872,330_02,,0,
331_02,,保育園前,,34.993955,133.396092,331_02,,0,
332_02,,福祉センター前,,34.992703,133.395524,332_02,,0,
340_01,,木谷,,35.098503,133.294901,340_01,,0,
341_02,,宮の前,,35.097485,133.298958,341_02,,0,
342_02,,古屋,,35.096842,133.302127,342_02,,0,
343_02,,上大原,,35.094685,133.306382,343_02,,0,
344_02,,大原,,35.092261,133.311103,344_02,,0,
345_02,,飛時原口,,35.090172,133.317333,345_02,,0,
346_02,,高瀬分館前,,35.087584,133.32036,346_02,,0,
347_02,,長久,,35.085286,133.324129,347_02,,0,
348_02,,長久橋,,35.085133,133.327142,348_02,,0,
349_02,,新屋坂,,35.083288,133.332468,349_02,,0,
350_02,,下梅田,,35.08402,133.338692,350_02,,0,
352_02,,新田橋,,35.088845,133.34398,352_02,,0,
353_02,,野原（神郷）,,35.092532,133.347789,353_02,,0,
354_02,,鷲尾,,35.092632,133.357279,354_02,,0,
355_02,,上和忠,,35.093638,133.366689,355_02,,0,
356_02,,郵便局前（新郷）,,35.089825,133.367194,356_02,,0,
357_02,,本村上,,35.062132,133.377672,357_02,,0,
358_02,,本村下,,35.05913,133.383152,358_02,,0,
362_02,,笹尾口,,35.013664,133.398381,362_02,,0,
363_02,,小谷,,35.008673,133.402946,363_02,,0,
364_02,,舞尾原,,35.00543,133.403956,364_02,,0,
365_02,,湯舟,,35.001553,133.398832,365_02,,0,
501_01,,南北,,34.917771,133.36809,501_01,,0,
501_02,,南北,,34.917811,133.368037,501_02,,0,
502_01,,上南北,,34.913317,133.366327,502_01,,0,
502_02,,上南北,,34.91335,133.366243,502_02,,0,
503_01,,野原公会堂,,34.909791,133.36164,503_01,,0,
503_02,,野原公会堂,,34.909849,133.361611,503_02,,0,
504_01,,野原（哲西）,,34.90831,133.35744,504_01,,0,
504_02,,野原（哲西）,,34.908366,133.357397,504_02,,0,
505_01,,野原口,,34.906072,133.352584,505_01,,0,
505_02,,野原口,,34.906152,133.35258,505_02,,0,
506_01,,生木,,34.904808,133.341176,506_01,,0,
506_02,,生木,,34.904883,133.341208,506_02,,0,
507_01,,大野部振興Ｃ,,34.901913,133.330231,507_01,,0,
507_02,,大野部振興Ｃ,,34.901933,133.330156,507_02,,0,
508_01,,新山前,,34.896033,133.325464,508_01,,0,
508_02,,新山前,,34.896028,133.325383,508_02,,0,
509_01,,吉田前,,34.890972,133.323481,509_01,,0,
509_02,,吉田前,,34.890988,133.323414,509_02,,0,
510_01,,榎橋,,34.887678,133.319723,510_01,,0,
510_02,,榎橋,,34.887776,133.319669,510_02,,0,
511_01,,神社前（哲西）,,34.884152,133.315869,511_01,,0,
512_01,,釼垰,,34.904432,133.328938,512_01,,0,
512_02,,釼垰,,34.904517,133.329,512_02,,0,
513_01,,野馳小学校前,,34.907667,133.325115,513_01,,0,
513_02,,野馳小学校前,,34.907654,133.32519,513_02,,0,
514_01,,井上前,,34.911717,133.324537,514_01,,0,
514_02,,井上前,,34.911706,133.324614,514_02,,0,
515_01,,郵便局前（野馳）,,34.916108,133.321316,515_01,,0,
515_02,,郵便局前（野馳）,,34.91618,133.321319,515_02,,0,
516_01,,野馳駅,,34.915006,133.316059,516_01,,0,
516_02,,野馳駅,,34.915066,133.315987,516_02,,0,
517_01,,野馳駐在所前,,34.917339,133.31792,517_01,,0,
517_02,,野馳駐在所前,,34.917301,133.317975,517_02,,0,
518_01,,四日市,,34.920103,133.322288,518_01,,0,
518_02,,四日市,,34.920058,133.322286,518_02,,0,
519_01,,畑木,,34.922214,133.325355,519_01,,0,
519_02,,畑木,,34.922141,133.325456,519_02,,0,
520_01,,真根木,,34.926532,133.329289,520_01,,0,
520_02,,真根木,,34.926453,133.329397,520_02,,0,
521_01,,きらめき広場,,34.933228,133.332128,521_01,,0,
522_01,,馬場上,,34.934675,133.333721,522_01,,0,
522_02,,馬場上,,34.934664,133.333781,522_02,,0,
523_01,,本町,,34.94085,133.332353,523_01,,0,
523_02,,本町,,34.940828,133.332407,523_02,,0,
524_01,,矢神駅,,34.94336,133.333255,524_01,,0,
524_02,,矢神駅,,34.94333,133.333312,524_02,,0,
525_01,,浪方,,34.946781,133.334125,525_01,,0,
525_02,,浪方,,34.946734,133.334201,525_02,,0,
526_01,,農協矢神支所前,,34.951218,133.333322,526_01,,0,
526_02,,農協矢神支所前,,34.951237,133.333404,526_02,,0,
527_01,,矢神小学校前,,34.955964,133.332527,527_01,,0,
527_02,,矢神小学校前,,34.955952,133.332614,527_02,,0,
528_01,,下馬,,34.959821,133.333762,528_01,,0,
528_02,,下馬,,34.959773,133.333828,528_02,,0,
529_01,,竹口前,,34.961683,133.335557,529_01,,0,
529_02,,竹口前,,34.96163,133.335651,529_02,,0,
530_01,,平古屋,,34.963329,133.338581,530_01,,0,
530_02,,平古屋,,34.963235,133.338639,530_02,,0,
531_01,,二の宮,,34.964826,133.342563,531_01,,0,
531_02,,二の宮,,34.96475,133.342623,531_02,,0,
532_01,,市岡駅,,34.966209,133.347421,532_01,,0,
532_02,,市岡駅,,34.96601,133.346743,532_02,,0,
533_01,,下タ組,,34.968535,133.354569,533_01,,0,
533_02,,下タ組,,34.968239,133.354279,533_02,,0,
534_01,,守下前,,34.911866,133.310346,534_01,,0,
534_02,,守下前,,34.911904,133.310272,534_02,,0,
535_01,,長谷川前,,34.909942,133.30633,535_01,,0,
535_02,,長谷川前,,34.910019,133.306263,535_02,,0,
536_01,,大竹口,,34.907227,133.301715,536_01,,0,
536_02,,大竹口,,34.907305,133.301704,536_02,,0,
537_01,,大竹集会所,,34.904445,133.302969,537_01,,0,
537_02,,大竹集会所,,34.904435,133.302891,537_02,,0,
538_01,,岸本上集会所,,34.899993,133.308907,538_01,,0,
539_01,,二本松,,34.90742,133.298712,539_01,,0,
701_01,,新砥市民センター前,,34.909667,133.405014,701_01,,0,
701_02,,新砥市民センター前,,34.909582,133.405036,701_02,,0,
704_01,,メディカルクリニック,,34.936916,133.444016,704_01,,0,
705_01,,哲多支局前,,34.936595,133.451665,705_01,,0,
706_01,,本郷小学校前,,34.937716,133.451194,706_01,,0,
706_02,,本郷小学校前,,34.93744,133.451066,706_02,,0,
707_01,,長柄,,34.944291,133.453131,707_01,,0,
707_02,,長柄,,34.944286,133.453234,707_02,,0,
708_01,,幸田,,34.947525,133.451899,708_01,,0,
708_02,,幸田,,34.947596,133.451846,708_02,,0,
709_01,,豊岡,,34.948159,133.4471,709_01,,0,
709_02,,豊岡,,34.948247,133.447185,709_02,,0,
710_01,,西本,,34.952476,133.44166,710_01,,0,
710_02,,西本,,34.952541,133.441699,710_02,,0,
711_01,,宮河内,,34.951324,133.433187,711_01,,0,
711_02,,宮河内,,34.951392,133.433149,711_02,,0,
712_01,,食源の里,,34.951554,133.429018,712_01,,0,
712_02,,食源の里,,34.95162,133.429043,712_02,,0,
713_01,,改新口,,34.958453,133.417368,713_01,,0,
713_02,,改新口,,34.958544,133.417371,713_02,,0,
714_01,,高松口,,34.962458,133.415107,714_01,,0,
714_02,,高松口,,34.962523,133.41516,714_02,,0,
715_01,,健康の森学園,,34.961065,133.413663,715_01,,0,
715_02,,健康の森学園,,34.961094,133.413542,715_02,,0,
716_01,,萬歳,,34.901779,133.454559,716_01,,0,
716_02,,萬歳,,34.901721,133.454616,716_02,,0,
717_01,,吉清,,34.910084,133.465029,717_01,,0,
717_02,,吉清,,34.910028,133.464966,717_02,,0,
718_01,,井戸口,,34.899899,133.474269,718_01,,0,
718_02,,井戸口,,34.899836,133.474388,718_02,,0,
719_01,,井原,,34.901611,133.476414,719_01,,0,
719_02,,井原,,34.901588,133.476481,719_02,,0,
720_01,,布寄,,34.895607,133.482037,720_01,,0,
720_02,,布寄,,34.895539,133.482126,720_02,,0,
721_01,,荻尾口,,34.902357,133.490075,721_01,,0,
721_02,,荻尾口,,34.902332,133.49015,721_02,,0,
722_01,,荻尾公会堂,,34.903816,133.493839,722_01,,0,
722_02,,荻尾公会堂,,34.903742,133.49385,722_02,,0,
723_01,,八幡前,,34.90492,133.502231,723_01,,0,
723_02,,八幡前,,34.90485,133.502243,723_02,,0,
724_01,,熊野,,34.905596,133.507148,724_01,,0,
724_02,,熊野,,34.905476,133.507028,724_02,,0,
725_01,,末森口,,34.907648,133.513857,725_01,,0,
725_02,,末森口,,34.907685,133.514003,725_02,,0,
726_01,,畑谷,,34.911604,133.518554,726_01,,0,
726_02,,畑谷,,34.91152,133.518607,726_02,,0,
727_01,,倉瀬平,,34.916918,133.52089,727_01,,0,
727_02,,倉瀬平,,34.916894,133.520924,727_02,,0,
728_01,,白谷橋,,34.920867,133.5195,728_01,,0,
728_02,,白谷橋,,34.920879,133.519598,728_02,,0,
729_01,,井倉洞前,,34.926123,133.521205,729_01,,0,
729_02,,井倉洞前,,34.926142,133.521279,729_02,,0,
730_01,,郵便局前（井倉）,,34.92918,133.520209,730_01,,0,
730_02,,郵便局前（井倉）,,34.929211,133.520263,730_02,,0,
731_01,,井倉駅,,34.931469,133.516264,731_01,,0,
732_01,,川上,,34.899764,133.43926,732_01,,0,
732_02,,川上,,34.899826,133.43927,732_02,,0,
733_01,,田畑橋,,34.897464,133.435148,733_01,,0,
733_02,,田畑橋,,34.897501,133.435159,733_02,,0,
734_01,,末光橋,,34.895734,133.42789,734_01,,0,
734_02,,末光橋,,34.89578,133.427848,734_02,,0,
735_01,,蚊家口,,34.894696,133.418144,735_01,,0,
735_02,,蚊家口,,34.894793,133.418175,735_02,,0,
736_01,,蚊家,,34.894168,133.411196,736_01,,0,
736_02,,蚊家,,34.894208,133.411129,736_02,,0,
737_01,,向山口,,34.891122,133.40563,737_01,,0,
737_02,,向山口,,34.891188,133.405611,737_02,,0,
738_01,,田井原,,34.89095,133.399428,738_01,,0,
738_02,,田井原,,34.891026,133.399482,738_02,,0,
739_01,,金蛍交流館,,34.894759,133.391531,739_01,,0,
739_02,,金蛍交流館,,34.8948,133.391605,739_02,,0,
740_01,,中野,,34.898486,133.3962,740_01,,0,
740_02,,中野,,34.898427,133.39623,740_02,,0,
741_01,,堀田橋,,34.903382,133.403453,741_01,,0,
741_02,,堀田橋,,34.903308,133.403639,741_02,,0,
742_01,,引無口,,34.915897,133.401942,742_01,,0,
742_02,,引無口,,34.915976,133.401977,742_02,,0,
743_01,,田淵,,34.92937,133.397093,743_01,,0,
743_02,,田淵,,34.929427,133.397223,743_02,,0,
744_01,,大山口,,34.930147,133.394792,744_01,,0,
744_02,,大山口,,34.930211,133.39484,744_02,,0,
745_01,,平忠口,,34.927726,133.389178,745_01,,0,
745_02,,平忠口,,34.927796,133.389123,745_02,,0,
746_01,,キャンプ場前,,34.925786,133.380117,746_01,,0,
746_02,,キャンプ場前,,34.925848,133.380088,746_02,,0,
747_01,,新田（哲多）,,34.92111,133.374401,747_01,,0,
747_02,,新田（哲多）,,34.921174,133.374379,747_02,,0,
"18_1",,"岡山駅",,"34.664703","133.91841","18_1",,"0",,,,
"18_2",,"岡山駅",,"34.66561","133.91867","18_2",,"0",,,,
"18_3",,"岡山駅",,"34.6655","133.91861","18_3",,"0",,,,
"18_4",,"岡山駅",,"34.66536","133.91852","18_4",,"0",,,,
"18_5",,"岡山駅",,"34.66528","133.91846","18_5",,"0",,,,
"18_6",,"岡山駅",,"34.665115","133.91835","18_6",,"0",,,,
"18_7",,"岡山駅",,"34.665","133.91824","18_7",,"0",,,,
"18_8",,"岡山駅",,"34.66483","133.91815","18_8",,"0",,,,
"18_10",,"岡山駅",,"34.665257","133.9188","18_10",,"0",,,,
"19_1",,"岡山駅前",,"34.66571","133.92102","19_1",,"0",,,,
"19_2",,"岡山駅前",,"34.665394","133.9211","19_2",,"0",,,,
"19_3",,"岡山駅前",,"34.665688","133.9208","19_3",,"0",,,,
"19_4",,"岡山駅前",,"34.665688","133.92091","19_4",,"0",,,,
"19_5",,"岡山駅前",,"34.665688","133.92114","19_5",,"0",,,,
"19_6",,"岡山駅前",,"34.665688","133.92169","19_6",,"0",,,,
"19_7",,"岡山駅前",,"34.665405","133.92084","19_7",,"0",,,,
"19_8",,"岡山駅前",,"34.66542","133.92108","19_8",,"0",,,,
"19_9",,"岡山駅前",,"34.665688","133.92136","19_9",,"0",,,,
"20_1",,"西川緑道公園前",,"34.66542","133.92226","20_1",,"0",,,,
"20_2",,"西川緑道公園前",,"34.66575","133.92151","20_2",,"0",,,,
"21_1",,"柳川西",,"34.66545","133.92473","21_1",,"0",,,,
"21_2",,"柳川西",,"34.665688","133.92387","21_2",,"0",,,,
"22_1",,"ＮＴＴ岡山前",,"34.66322","133.92645","22_1",,"0",,,,
"22_2",,"ＮＴＴ岡山前",,"34.66317","133.92609","22_2",,"0",,,,
"22_3",,"ＮＴＴ岡山前",,"34.66306","133.92635","22_3",,"0",,,,
"22_4",,"ＮＴＴ岡山前",,"34.66297","133.92609","22_4",,"0",,,,
"22_5",,"ＮＴＴ岡山前",,"34.66317","133.92609","22_5",,"0",,,,
"23_1",,"両備前",,"34.6626","133.92097","23_1",,"0",,,,
"24_1",,"農業会館前",,"34.66251","133.92488","24_1",,"0",,,,
"25_1",,"柳町一丁目",,"34.66017","133.92075","25_1",,"0",,,,
"26_1",,"田町二丁目",,"34.66039","133.92511","26_1",,"0",,,,
"27_1",,"天満屋",,"34.661633","133.92827","27_1",,"0",,,,
"27_2",,"天満屋",,"34.66216","133.92853","27_2",,"0",,,,
"27_3",,"天満屋",,"34.66207","133.92853","27_3",,"0",,,,
"27_4",,"天満屋",,"34.66199","133.92853","27_4",,"0",,,,
"27_5",,"天満屋",,"34.661896","133.92853","27_5",,"0",,,,
"27_6",,"天満屋",,"34.661816","133.92853","27_6",,"0",,,,
"27_7",,"天満屋",,"34.66173","133.92853","27_7",,"0",,,,
"27_8",,"天満屋",,"34.661713","133.92828","27_8",,"0",,,,
"27_12",,"天満屋",,"34.66155","133.92827","27_12",,"0",,,,
"27_13",,"天満屋",,"34.66188","133.92825","27_13",,"0",,,,
"28_1",,"中銀前",,"34.66259","133.93028","28_1",,"0",,,,
"28_2",,"中銀前",,"34.662376","133.93091","28_2",,"0",,,,
"28_3",,"中銀前",,"34.662327","133.93098","28_3",,"0",,,,
"29_1",,"栄町",,"34.66048","133.92981","29_1",,"0",,,,
"29_2",,"栄町",,"34.66048","133.92981","29_2",,"0",,,,
"30_1",,"中電前",,"34.66047","133.93155","30_1",,"0",,,,
"31_1",,"県庁前",,"34.66222","133.93443","31_1",,"0",,,,
"31_2",,"県庁前",,"34.66077","133.93457","31_2",,"0",,,,
"31_3",,"県庁前",,"34.66222","133.93443","31_3",,"0",,,,
"31_4",,"県庁前",,"34.66077","133.93457","31_4",,"0",,,,
"32_1",,"市役所入口",,"34.656162","133.92198","32_1",,"0",,,,
"32_2",,"市役所入口",,"34.65645","133.92091","32_2",,"0",,,,
"33_1",,"千日前・岡山芸術創造劇場ハレノワ南",,"34.656162","133.9278","33_1",,"0",,,,
"33_2",,"千日前・岡山芸術創造劇場ハレノワ南",,"34.6564","133.9295","33_2",,"0",,,,
"34_1",,"駅前町",,"34.667145","133.91965","34_1",,"0",,,,
"35_1",,"岡山高島屋前",,"34.66483","133.91928","35_1",,"0",,,,
"36_1",,"錦町",,"34.66347","133.91917","36_1",,"0",,,,
"37_1",,"イオンモール岡山前・源吉兆庵本社前",,"34.661926","133.91895","37_1",,"0",,,,
"38_1",,"山陽新聞社前・杜の街入口",,"34.65789","133.91911","38_1",,"0",,,,
"38_2",,"山陽新聞社前・杜の街入口",,"34.6576","133.91942","38_2",,"0",,,,
"38_3",,"山陽新聞社前・杜の街入口",,"34.6576","133.91942","38_3",,"0",,,,
"38_4",,"山陽新聞社前・杜の街入口",,"34.65789","133.91911","38_4",,"0",,,,
"39_1",,"岡山市役所前",,"34.65565","133.91914","39_1",,"0",,,,
"39_2",,"岡山市役所前",,"34.655224","133.91885","39_2",,"0",,,,
"39_3",,"岡山市役所前",,"34.65547","133.91866","39_3",,"0",,,,
"40_1",,"水道局前",,"34.653824","133.91756","40_1",,"0",,,,
"40_2",,"水道局前",,"34.653465","133.9177","40_2",,"0",,,,
"41_1",,"精神科医療センター西",,"34.65136","133.91487","41_1",,"0",,,,
"41_2",,"精神科医療センター西",,"34.65109","133.91493","41_2",,"0",,,,
"42_1",,"東古松二丁目",,"34.65007","133.91344","42_1",,"0",,,,
"42_2",,"東古松二丁目",,"34.64997","133.91348","42_2",,"0",,,,
"43_1",,"大元駅前",,"34.64769","133.91118","43_1",,"0",,,,
"43_2",,"大元駅前",,"34.64722","133.91138","43_2",,"0",,,,
"44_1",,"西古松",,"34.64564","133.90852","44_1",,"0",,,,
"44_2",,"西古松",,"34.64556","133.90833","44_2",,"0",,,,
"45_1",,"大元一丁目",,"34.64454","133.9047","45_1",,"0",,,,
"45_2",,"大元一丁目",,"34.644","133.90477","45_2",,"0",,,,
"46_1",,"野崎",,"34.64315","133.9047","46_1",,"0",,,,
"46_2",,"野崎",,"34.6424","133.9048","46_2",,"0",,,,
"47_1",,"下中野北",,"34.63855","133.90424","47_1",,"0",,,,
"47_2",,"下中野北",,"34.63844","133.90433","47_2",,"0",,,,
"48_1",,"下中野",,"34.636265","133.90164","48_1",,"0",,,,
"48_2",,"下中野",,"34.63615","133.90189","48_2",,"0",,,,
"49_1",,"両備テクノ前",,"34.63314","133.89812","49_1",,"0",,,,
"49_2",,"両備テクノ前",,"34.63362","133.89902","49_2",,"0",,,,
"50_1",,"大角橋",,"34.631985","133.89677","50_1",,"0",,,,
"50_2",,"大角橋",,"34.63153","133.89664","50_2",,"0",,,,
"51_1",,"西市",,"34.630512","133.89511","51_1",,"0",,,,
"51_2",,"西市",,"34.63026","133.8952","51_2",,"0",,,,
"52_1",,"米倉",,"34.62715","133.89133","52_1",,"0",,,,
"52_2",,"米倉",,"34.62727","133.89159","52_2",,"0",,,,
"53_1",,"相生橋",,"34.62577","133.88611","53_1",,"0",,,,
"53_2",,"相生橋",,"34.62565","133.88606","53_2",,"0",,,,
"54_1",,"大福中",,"34.62389","133.88255","54_1",,"0",,,,
"54_2",,"大福中",,"34.62347","133.88193","54_2",,"0",,,,
"55_1",,"大福",,"34.62188","133.87895","55_1",,"0",,,,
"55_2",,"大福",,"34.62199","133.87926","55_2",,"0",,,,
"56_1",,"荒田",,"34.619293","133.8732","56_1",,"0",,,,
"56_2",,"荒田",,"34.61904","133.87263","56_2",,"0",,,,
"57_1",,"荒田西",,"34.61795","133.86916","57_1",,"0",,,,
"57_2",,"荒田西",,"34.61791","133.86925","57_2",,"0",,,,
"58_1",,"和田",,"34.61684","133.86575","58_1",,"0",,,,
"58_2",,"和田",,"34.61678","133.86572","58_2",,"0",,,,
"59_1",,"汗入",,"34.61491","133.86092","59_1",,"0",,,,
"59_2",,"汗入",,"34.61505","133.86127","59_2",,"0",,,,
"60_1",,"岡山南支援学校",,"34.59227","133.86798","60_1",,"0",,,,
"61_1",,"大雲寺前",,"34.65646","133.92465","61_1",,"0",,,,
"61_2",,"大雲寺前",,"34.65744","133.9265","61_2",,"0",,,,
"61_3",,"大雲寺前",,"34.65741","133.92612","61_3",,"0",,,,
"61_4",,"大雲寺前",,"34.65614","133.92542","61_4",,"0",,,,
"61_5",,"大雲寺前",,"34.65641","133.92441","61_5",,"0",,,,
"62_1",,"東中央町",,"34.65473","133.92604","62_1",,"0",,,,
"62_2",,"東中央町",,"34.654816","133.92628","62_2",,"0",,,,
"63_1",,"清輝橋",,"34.6505","133.92546","63_1",,"0",,,,
"63_2",,"清輝橋",,"34.65192","133.92574","63_2",,"0",,,,
"63_3",,"清輝橋",,"34.65148","133.92516","63_3",,"0",,,,
"63_4",,"清輝橋",,"34.651443","133.92488","63_4",,"0",,,,
"63_5",,"清輝橋",,"34.650726","133.9255","63_5",,"0",,,,
"64_1",,"岡南営業所",,"34.644432","133.92485","64_1",,"0",,,,
"64_2",,"岡南営業所",,"34.64425","133.92503","64_2",,"0",,,,
"65_1",,"岡南小学校前",,"34.640835","133.92493","65_1",,"0",,,,
"65_2",,"岡南小学校前",,"34.641518","133.92516","65_2",,"0",,,,
"67_1",,"日赤病院入口",,"34.63647","133.92224","67_1",,"0",,,,
"67_2",,"日赤病院入口",,"34.63625","133.92232","67_2",,"0",,,,
"68_1",,"日赤病院",,"34.635","133.923","68_1",,"0",,,,
"69_1",,"青江北",,"34.63472","133.92044","69_1",,"0",,,,
"69_2",,"青江北",,"34.633743","133.91977","69_2",,"0",,,,
"69_3",,"青江北",,"34.633743","133.91977","69_3",,"0",,,,
"69_4",,"青江北",,"34.63472","133.92044","69_4",,"0",,,,
"70_1",,"青江西",,"34.63042","133.91609","70_1",,"0",,,,
"70_2",,"青江西",,"34.63154","133.9176","70_2",,"0",,,,
"70_3",,"青江西",,"34.63154","133.9176","70_3",,"0",,,,
"70_4",,"青江西",,"34.63042","133.91609","70_4",,"0",,,,
"71_1",,"泉田口",,"34.625343","133.91185","71_1",,"0",,,,
"71_2",,"泉田口",,"34.62534","133.91142","71_2",,"0",,,,
"71_3",,"泉田口",,"34.625523","133.91345","71_3",,"0",,,,
"71_4",,"泉田口",,"34.62541","133.9133","71_4",,"0",,,,
"72_1",,"芳泉高入口",,"34.623795","133.91008","72_1",,"0",,,,
"72_2",,"芳泉高入口",,"34.62372","133.91035","72_2",,"0",,,,
"73_1",,"当新田",,"34.620987","133.9076","73_1",,"0",,,,
"73_2",,"当新田",,"34.62093","133.90776","73_2",,"0",,,,
"74_1",,"大東",,"34.61621","133.9038","74_1",,"0",,,,
"74_2",,"大東",,"34.61652","133.9042","74_2",,"0",,,,
"75_1",,"錦貯水",,"34.608513","133.90364","75_1",,"0",,,,
"76_1",,"藤田団地北",,"34.60625","133.90257","76_1",,"0",,,,
"76_2",,"藤田団地北",,"34.60474","133.90163","76_2",,"0",,,,
"77_1",,"藤田第二小学校沖",,"34.601795","133.89893","77_1",,"0",,,,
"78_1",,"藤田団地南",,"34.60054","133.89793","78_1",,"0",,,,
"78_2",,"藤田団地南",,"34.59915","133.89706","78_2",,"0",,,,
"79_1",,"錦六区入口",,"34.59771","133.89563","79_1",,"0",,,,
"79_2",,"錦六区入口",,"34.59632","133.89478","79_2",,"0",,,,
"80_1",,"DCM岡山・Pモール藤田前",,"34.59043","133.88843","80_1",,"0",,,,
"80_2",,"DCM岡山・Pモール藤田前",,"34.589924","133.88808","80_2",,"0",,,,
"81_1",,"興陽高校前",,"34.5879","133.88759","81_1",,"0",,,,
"81_2",,"興陽高校前",,"34.5867","133.88692","81_2",,"0",,,,
"82_1",,"都六区入口",,"34.578823","133.8847","82_1",,"0",,,,
"82_2",,"都六区入口",,"34.57704","133.88475","82_2",,"0",,,,
"83_1",,"都六区下",,"34.5665","133.88327","83_1",,"0",,,,
"83_2",,"都六区下",,"34.56464","133.8833","83_2",,"0",,,,
"84_1",,"秀天橋",,"34.52452","133.90036","84_1",,"0",,,,
"84_2",,"秀天橋",,"34.524","133.90102","84_2",,"0",,,,
"84_3",,"秀天橋",,"34.523834","133.90002","84_3",,"0",,,,
"84_4",,"秀天橋",,"34.52354","133.89983","84_4",,"0",,,,
"85_1",,"荘内支所前",,"34.51037","133.89485","85_1",,"0",,,,
"85_2",,"荘内支所前",,"34.50972","133.89464","85_2",,"0",,,,
"86_1",,"暮石",,"34.500076","133.89027","86_1",,"0",,,,
"87_2",,"長尾農協前",,"34.49673","133.88707","87_2",,"0",,,,
"88_2",,"滝",,"34.495293","133.88068","88_2",,"0",,,,
"89_2",,"永井",,"34.485744","133.87451","89_2",,"0",,,,
"90_2",,"永井中",,"34.482994","133.87341","90_2",,"0",,,,
"91_1",,"永井上",,"34.48219","133.8706","91_1",,"0",,,,
"92_1",,"十日市",,"34.63813","133.92607","92_1",,"0",,,,
"92_2",,"十日市",,"34.63765","133.9269","92_2",,"0",,,,
"93_1",,"十日市南",,"34.63574","133.9286","93_1",,"0",,,,
"93_2",,"十日市南",,"34.635284","133.92937","93_2",,"0",,,,
"93_3",,"十日市南",,"34.635284","133.92937","93_3",,"0",,,,
"93_4",,"十日市南",,"34.63574","133.9286","93_4",,"0",,,,
"94_1",,"豊成",,"34.63362","133.93083","94_1",,"0",,,,
"94_2",,"豊成",,"34.63365","133.93114","94_2",,"0",,,,
"95_1",,"浜野西",,"34.630383","133.93428","95_1",,"0",,,,
"95_2",,"浜野西",,"34.630627","133.93436","95_2",,"0",,,,
"96_1",,"浜野入口",,"34.627163","133.93756","96_1",,"0",,,,
"96_2",,"浜野入口",,"34.62696","133.93811","96_2",,"0",,,,
"97_1",,"福浜校前",,"34.625004","133.93991","97_1",,"0",,,,
"97_2",,"福浜校前",,"34.62481","133.94035","97_2",,"0",,,,
"98_1",,"洲崎",,"34.62208","133.94296","98_1",,"0",,,,
"98_2",,"洲崎",,"34.622437","133.94287","98_2",,"0",,,,
"99_1",,"みやはら耳鼻科・福浜市営住宅前",,"34.617416","133.94151","99_1",,"0",,,,
"99_2",,"みやはら耳鼻科・福浜市営住宅前",,"34.61821","133.94199","99_2",,"0",,,,
"100_1",,"機工センター口",,"34.614773","133.94164","100_1",,"0",,,,
"100_2",,"機工センター口",,"34.614826","133.94179","100_2",,"0",,,,
"101_1",,"若葉町",,"34.612343","133.94328","101_1",,"0",,,,
"101_2",,"若葉町",,"34.612442","133.94339","101_2",,"0",,,,
"102_1",,"並木町",,"34.6103","133.94383","102_1",,"0",,,,
"102_2",,"並木町",,"34.6102","133.944","102_2",,"0",,,,
"103_1",,"築港栄町",,"34.60794","133.94304","103_1",,"0",,,,
"103_2",,"築港栄町",,"34.60794","133.94324","103_2",,"0",,,,
"104_1",,"あけぼの町",,"34.60678","133.94258","104_1",,"0",,,,
"104_2",,"あけぼの町",,"34.60667","133.94272","104_2",,"0",,,,
"105_1",,"築港新町",,"34.60374","133.9413","105_1",,"0",,,,
"105_2",,"築港新町",,"34.60437","133.94173","105_2",,"0",,,,
"105_3",,"築港新町",,"34.60511","133.93971","105_3",,"0",,,,
"105_4",,"築港新町",,"34.60513","133.94017","105_4",,"0",,,,
"106_1",,"新西大寺町筋",,"34.65881","133.92615","106_1",,"0",,,,
"106_2",,"新西大寺町筋",,"34.65912","133.92648","106_2",,"0",,,,
"107_1",,"大学病院筋",,"34.65642","133.92201","107_1",,"0",,,,
"107_2",,"大学病院筋",,"34.65614","133.92085","107_2",,"0",,,,
"107_3",,"大学病院筋",,"34.65642","133.92201","107_3",,"0",,,,
"108_1",,"大供",,"34.65636","133.91774","108_1",,"0",,,,
"108_2",,"大供",,"34.65612","133.9184","108_2",,"0",,,,
"109_1",,"厚生町商工会議所前",,"34.656284","133.91382","109_1",,"0",,,,
"109_2",,"厚生町商工会議所前",,"34.656044","133.91348","109_2",,"0",,,,
"110_1",,"光生病院前",,"34.65603","133.91124","110_1",,"0",,,,
"111_1",,"大供新屋敷",,"34.656105","133.90865","111_1",,"0",,,,
"111_2",,"大供新屋敷",,"34.65592","133.90794","111_2",,"0",,,,
"111_3",,"大供新屋敷",,"34.65592","133.90794","111_3",,"0",,,,
"111_4",,"大供新屋敷",,"34.656105","133.90865","111_4",,"0",,,,
"112_1",,"野田東",,"34.655354","133.9038","112_1",,"0",,,,
"112_2",,"野田東",,"34.65519","133.90399","112_2",,"0",,,,
"113_1",,"備前野田",,"34.6543","133.9005","113_1",,"0",,,,
"113_2",,"備前野田",,"34.654385","133.90144","113_2",,"0",,,,
"114_1",,"岡山ドーム入口",,"34.6527","133.89554","114_1",,"0",,,,
"114_2",,"岡山ドーム入口",,"34.652485","133.89552","114_2",,"0",,,,
"115_1",,"大野辻",,"34.65082","133.8912","115_1",,"0",,,,
"115_2",,"大野辻",,"34.650166","133.89038","115_2",,"0",,,,
"116_1",,"北長瀬駅前",,"34.6527","133.88547","116_1",,"0",,,,
"116_2",,"北長瀬駅前",,"34.652424","133.88525","116_2",,"0",,,,
"117_1",,"中仙道",,"34.64882","133.88475","117_1",,"0",,,,
"117_2",,"中仙道",,"34.648643","133.88474","117_2",,"0",,,,
"118_1",,"西長瀬",,"34.64839","133.87987","118_1",,"0",,,,
"118_2",,"西長瀬",,"34.6482","133.87984","118_2",,"0",,,,
"119_1",,"備前白石",,"34.64812","133.8754","119_1",,"0",,,,
"119_2",,"備前白石",,"34.64801","133.87611","119_2",,"0",,,,
"120_1",,"鉄工センター前",,"34.646484","133.87006","120_1",,"0",,,,
"120_2",,"鉄工センター前",,"34.64641","133.87013","120_2",,"0",,,,
"121_1",,"延友",,"34.644707","133.86441","121_1",,"0",,,,
"121_2",,"延友",,"34.64429","133.86339","121_2",,"0",,,,
"122_1",,"平野",,"34.64618","133.85867","122_1",,"0",,,,
"122_2",,"平野",,"34.646088","133.85817","122_2",,"0",,,,
"123_1",,"庭瀬駅通",,"34.64627","133.8541","123_1",,"0",,,,
"123_2",,"庭瀬駅通",,"34.64621","133.85272","123_2",,"0",,,,
"124_1",,"庭瀬本町",,"34.64617","133.84729","124_1",,"0",,,,
"124_2",,"庭瀬本町",,"34.64612","133.84871","124_2",,"0",,,,
"125_1",,"撫川",,"34.64431","133.84045","125_1",,"0",,,,
"125_2",,"撫川",,"34.644115","133.84024","125_2",,"0",,,,
"126_1",,"下撫川",,"34.64327","133.83736","126_1",,"0",,,,
"126_2",,"下撫川",,"34.64325","133.83768","126_2",,"0",,,,
"128_1",,"瀬戸大橋温泉",,"34.64177","133.83272","128_1",,"0",,,,
"128_2",,"瀬戸大橋温泉",,"34.641518","133.83223","128_2",,"0",,,,
"129_1",,"備中庄",,"34.64007","133.82776","129_1",,"0",,,,
"129_2",,"備中庄",,"34.64049","133.82861","129_2",,"0",,,,
"129_3",,"備中庄",,"34.64007","133.82776","129_3",,"0",,,,
"129_4",,"備中庄",,"34.64049","133.82861","129_4",,"0",,,,
"130_1",,"清心学園口",,"34.63714","133.81853","130_1",,"0",,,,
"130_2",,"清心学園口",,"34.63739","133.819","130_2",,"0",,,,
"130_3",,"清心学園口",,"34.63714","133.81853","130_3",,"0",,,,
"130_4",,"清心学園口",,"34.637623","133.8188","130_4",,"0",,,,
"131_1",,"松島北ノ口",,"34.63404","133.81226","131_1",,"0",,,,
"131_2",,"松島北ノ口",,"34.63492","133.81352","131_2",,"0",,,,
"131_3",,"松島北ノ口",,"34.63404","133.81226","131_3",,"0",,,,
"131_4",,"松島北ノ口",,"34.63492","133.81352","131_4",,"0",,,,
"132_1",,"川崎医大前",,"34.63252","133.80957","132_1",,"0",,,,
"132_2",,"川崎医大前",,"34.63287","133.80995","132_2",,"0",,,,
"132_3",,"川崎医大前",,"34.63252","133.80957","132_3",,"0",,,,
"132_4",,"川崎医大前",,"34.63287","133.80995","132_4",,"0",,,,
"133_1",,"松島西ノ口",,"34.63053","133.80609","133_1",,"0",,,,
"133_2",,"松島西ノ口",,"34.63072","133.80614","133_2",,"0",,,,
"133_3",,"松島西ノ口",,"34.62984","133.80688","133_3",,"0",,,,
"133_4",,"松島西ノ口",,"34.629856","133.80704","133_4",,"0",,,,
"134_1",,"バラ園南",,"34.64277","133.83443","134_1",,"0",,,,
"134_2",,"バラ園南",,"34.64269","133.83421","134_2",,"0",,,,
"135_1",,"ＲＳＫバラ園前",,"34.64692","133.83298","135_1",,"0",,,,
"135_2",,"ＲＳＫバラ園前",,"34.64672","133.83287","135_2",,"0",,,,
"136_1",,"中庄駅",,"34.62661","133.80803","136_1",,"0",,,,
"137_1",,"大学病院",,"34.65174","133.92078","137_1",,"0",,,,
"138_1",,"大学病院入口",,"34.65237","133.92053","138_1",,"0",,,,
"138_2",,"大学病院入口",,"34.6522","133.92169","138_2",,"0",,,,
"139_1",,"桜橋",,"34.6508","133.93227","139_1",,"0",,,,
"139_2",,"桜橋",,"34.650055","133.93222","139_2",,"0",,,,
"139_3",,"桜橋",,"34.65026","133.93256","139_3",,"0",,,,
"139_4",,"桜橋",,"34.65013","133.93251","139_4",,"0",,,,
"140_1",,"網浜",,"34.65001","133.93631","140_1",,"0",,,,
"140_2",,"網浜",,"34.64979","133.93591","140_2",,"0",,,,
"141_1",,"協立病院前",,"34.65195","133.93738","141_1",,"0",,,,
"141_2",,"協立病院前",,"34.652065","133.93765","141_2",,"0",,,,
"142_1",,"国清寺前",,"34.65544","133.93825","142_1",,"0",,,,
"142_2",,"国清寺前",,"34.65565","133.9385","142_2",,"0",,,,
"143_1",,"東高前",,"34.652424","133.93994","143_1",,"0",,,,
"144_1",,"附属校前",,"34.653","133.94238","144_1",,"0",,,,
"145_1",,"東島田町",,"34.65875","133.91232","145_1",,"0",,,,
"146_1",,"古京",,"34.66066","133.94054","146_1",,"0",,,,
"146_2",,"古京",,"34.660313","133.94055","146_2",,"0",,,,
"147_1",,"門田屋敷",,"34.65795","133.939","147_1",,"0",,,,
"148_1",,"山陽学園中学・高校前",,"34.65612","133.94044","148_1",,"0",,,,
"148_2",,"山陽学園中学・高校前",,"34.656284","133.9397","148_2",,"0",,,,
"149_1",,"東山電停前",,"34.656284","133.94283","149_1",,"0",,,,
"150_1",,"東山",,"34.65631","133.94354","150_1",,"0",,,,
"150_2",,"東山",,"34.65655","133.94379","150_2",,"0",,,,
"151_1",,"朝日高前",,"34.66167","133.94205","151_1",,"0",,,,
"151_2",,"朝日高前",,"34.66205","133.94241","151_2",,"0",,,,
"152_1",,"国富",,"34.66302","133.9435","152_1",,"0",,,,
"152_2",,"国富",,"34.66358","133.94376","152_2",,"0",,,,
"152_3",,"国富",,"34.66399","133.94443","152_3",,"0",,,,
"152_4",,"国富",,"34.664825","133.94518","152_4",,"0",,,,
"153_1",,"国富東",,"34.666912","133.94331","153_1",,"0",,,,
"153_2",,"国富東",,"34.667324","133.9472","153_2",,"0",,,,
"153_3",,"国富東",,"34.666813","133.94678","153_3",,"0",,,,
"154_1",,"原東・東郵便局前",,"34.66858","133.95033","154_1",,"0",,,,
"154_2",,"原東・東郵便局前",,"34.66905","133.95113","154_2",,"0",,,,
"155_2",,"浜・中区役所前",,"34.669094","133.94319","155_2",,"0",,,,
"156_1",,"原尾島一丁目",,"34.67091","133.94461","156_1",,"0",,,,
"156_2",,"原尾島一丁目",,"34.67092","133.94519","156_2",,"0",,,,
"157_2",,"六枚橋",,"34.670517","133.9473","157_2",,"0",,,,
"158_2",,"原尾島",,"34.67019","133.94907","158_2",,"0",,,,
"159_1",,"原尾島住宅",,"34.670322","133.95462","159_1",,"0",,,,
"159_2",,"原尾島住宅",,"34.67055","133.95471","159_2",,"0",,,,
"159_3",,"原尾島住宅",,"34.67055","133.95471","159_3",,"0",,,,
"159_4",,"原尾島住宅",,"34.670322","133.95462","159_4",,"0",,,,
"160_1",,"藤原",,"34.67416","133.95836","160_1",,"0",,,,
"160_2",,"藤原",,"34.67456","133.95827","160_2",,"0",,,,
"161_1",,"清水",,"34.68053","133.95886","161_1",,"0",,,,
"161_2",,"清水",,"34.680096","133.95898","161_2",,"0",,,,
"161_3",,"清水",,"34.67896","133.95541","161_3",,"0",,,,
"162_1",,"岩田町",,"34.66882","133.9201","162_1",,"0",,,,
"163_1",,"後楽園",,"34.66956","133.93367","163_1",,"0",,,,
"163_2",,"後楽園",,"34.66974","133.93361","163_2",,"0",,,,
"164_1",,"蓬莱橋夢二美術館前",,"34.67029","133.93507","164_1",,"0",,,,
"164_2",,"蓬莱橋夢二美術館前",,"34.67035","133.93544","164_2",,"0",,,,
"165_1",,"浜本町",,"34.67028","133.9399","165_1",,"0",,,,
"165_2",,"浜本町",,"34.67036","133.93993","165_2",,"0",,,,
"166_1",,"浜東・中区役所前",,"34.67016","133.94208","166_1",,"0",,,,
"166_2",,"浜東・中区役所前",,"34.67026","133.94273","166_2",,"0",,,,
"167_1",,"二本松",,"34.67301","133.95885","167_1",,"0",,,,
"167_2",,"二本松",,"34.67309","133.9586","167_2",,"0",,,,
"168_1",,"内山下",,"34.66181","133.93057","168_1",,"0",,,,
"169_1",,"城下",,"34.66508","133.93051","169_1",,"0",,,,
"170_1",,"美術館前・RSK本社前",,"34.66632","133.93063","170_1",,"0",,,,
"170_2",,"美術館前・RSK本社前",,"34.66682","133.93037","170_2",,"0",,,,
"171_1",,"天神町",,"34.66799","133.93028","171_1",,"0",,,,
"172_1",,"出石町一丁目",,"34.6689","133.93098","172_1",,"0",,,,
"173_1",,"岡山空港",,"34.76044","133.85344","173_1",,"0",,,,
"173_2",,"岡山空港",,"34.76007","133.85262","173_2",,"0",,,,
"174_1",,"倉敷駅",,"34.601315","133.76591","174_1",,"0",,,,"1"
"175_1",,"昭和町",,"34.603497","133.77045","175_1",,"0",,,,
"175_2",,"昭和町",,"34.6032","133.76978","175_2",,"0",,,,
"175_3",,"昭和町",,"34.66446","133.91292","175_3",,"0",,,,
"175_4",,"昭和町",,"34.66462","133.91312","175_4",,"0",,,,
"176_1",,"あちてらす倉敷前",,"34.599262","133.7678","176_1",,"0",,,,
"176_2",,"あちてらす倉敷前",,"34.59861","133.7685","176_2",,"0",,,,
"177_1",,"大原美術館前",,"34.595524","133.76936","177_1",,"0",,,,
"177_2",,"大原美術館前",,"34.595245","133.7696","177_2",,"0",,,,
"178_1",,"中央二丁目",,"34.59355","133.76974","178_1",,"0",,,,
"178_2",,"中央二丁目",,"34.59297","133.77019","178_2",,"0",,,,
"179_1",,"倉商東",,"34.5888","133.77109","179_1",,"0",,,,
"179_2",,"倉商東",,"34.58849","133.77121","179_2",,"0",,,,
"180_1",,"倉敷市役所",,"34.58569","133.7706","180_1",,"0",,,,
"180_2",,"倉敷市役所",,"34.58521","133.77068","180_2",,"0",,,,
"181_1",,"総合市場前",,"34.58189","133.77","181_1",,"0",,,,
"182_1",,"ゆめタウン倉敷",,"34.57855","133.76971","182_1",,"0",,,,
"183_1",,"笹沖",,"34.57553","133.76917","183_1",,"0",,,,
"183_2",,"笹沖",,"34.575165","133.76935","183_2",,"0",,,,
"184_1",,"葦高小学校東",,"34.57249","133.76886","184_1",,"0",,,,
"184_2",,"葦高小学校東",,"34.57167","133.76898","184_2",,"0",,,,
"185_1",,"倉敷南高校入口",,"34.5689","133.7685","185_1",,"0",,,,
"185_2",,"倉敷南高校入口",,"34.56853","133.76868","185_2",,"0",,,,
"186_1",,"吉岡",,"34.56586","133.7683","186_1",,"0",,,,
"187_1",,"浦田",,"34.55969","133.76842","187_1",,"0",,,,
"187_2",,"浦田",,"34.55934","133.7688","187_2",,"0",,,,
"188_1",,"二福小古城池高前",,"34.547523","133.76244","188_1",,"0",,,,
"189_1",,"観音堂",,"34.5415","133.75781","189_1",,"0",,,,
"189_2",,"観音堂",,"34.54097","133.75699","189_2",,"0",,,,
"190_1",,"倉商前",,"34.589085","133.76884","190_1",,"0",,,,
"190_2",,"倉商前",,"34.58911","133.76776","190_2",,"0",,,,
"191_2",,"倉敷成人病センター前",,"34.588943","133.76517","191_2",,"0",,,,
"192_2",,"商工会館前",,"34.5889","133.76424","192_2",,"0",,,,
"193_1",,"倉敷駅北口",,"34.60236","133.76534","193_1",,"0",,,,"1"
"194_1",,"王子ヶ岳登山口",,"34.46054","133.87616","194_1",,"0",,,,
"195_1",,"ホールサムインせとうち",,"34.457184","133.87991","195_1",,"0",,,,
"196_1",,"渋川三丁目",,"34.45726","133.89914","196_1",,"0",,,,
"196_2",,"渋川三丁目",,"34.45718","133.89857","196_2",,"0",,,,
"197_1",,"渋川",,"34.456635","133.90303","197_1",,"0",,,,
"198_1",,"渋川一丁目",,"34.45731","133.9072","198_1",,"0",,,,
"198_2",,"渋川一丁目",,"34.45716","133.9065","198_2",,"0",,,,
"199_1",,"梅木橋",,"34.457848","133.9102","199_1",,"0",,,,
"200_1",,"日比製煉西門前",,"34.457077","133.91295","200_1",,"0",,,,
"200_2",,"日比製煉西門前",,"34.45737","133.91199","200_2",,"0",,,,
"201_1",,"日比製煉所前",,"34.456215","133.91682","201_1",,"0",,,,
"201_2",,"日比製煉所前",,"34.456165","133.91733","201_2",,"0",,,,
"202_1",,"日比市民センター前",,"34.458416","133.92351","202_1",,"0",,,,
"203_1",,"日比",,"34.45806","133.92226","203_1",,"0",,,,
"203_2",,"日比",,"34.45826","133.92252","203_2",,"0",,,,
"204_1",,"羽根崎町",,"34.46102","133.92235","204_1",,"0",,,,
"204_2",,"羽根崎町",,"34.46165","133.9221","204_2",,"0",,,,
"205_1",,"和田三丁目",,"34.46629","133.92133","205_1",,"0",,,,
"205_2",,"和田三丁目",,"34.46581","133.9213","205_2",,"0",,,,
"206_1",,"和田社宅前",,"34.46932","133.92223","206_1",,"0",,,,
"206_2",,"和田社宅前",,"34.46894","133.92216","206_2",,"0",,,,
"207_1",,"和田一丁目",,"34.47096","133.92598","207_1",,"0",,,,
"207_2",,"和田一丁目",,"34.47089","133.92651","207_2",,"0",,,,
"208_1",,"三井E&S日の田正門前",,"34.471783","133.93298","208_1",,"0",,,,
"209_1",,"三井E&S玉正門前",,"34.475353","133.93251","209_1",,"0",,,,
"209_2",,"三井E&S玉正門前",,"34.47544","133.93256","209_2",,"0",,,,
"210_1",,"玉四丁目",,"34.47833","133.93118","210_1",,"0",,,,
"210_2",,"玉四丁目",,"34.47756","133.9317","210_2",,"0",,,,
"211_1",,"玉比咩神社前",,"34.48163","133.9298","211_1",,"0",,,,
"212_1",,"玉六丁目",,"34.483364","133.93164","212_1",,"0",,,,
"213_1",,"商工高校前",,"34.485634","133.93188","213_1",,"0",,,,
"214_1",,"天馬町",,"34.489162","133.93936","214_1",,"0",,,,
"214_2",,"天馬町",,"34.48945","133.93948","214_2",,"0",,,,
"215_1",,"鳴滝橋",,"34.49217","133.94066","215_1",,"0",,,,
"216_1",,"玉野市役所入口",,"34.49359","133.94559","216_1",,"0",,,,
"216_2",,"玉野市役所入口",,"34.49342","133.94464","216_2",,"0",,,,
"217_1",,"旭橋通り",,"34.493782","133.94943","217_1",,"0",,,,
"217_2",,"旭橋通り",,"34.49323","133.95016","217_2",,"0",,,,
"218_1",,"宇野駅",,"34.493877","133.95345","218_1",,"0",,,,
"219_1",,"東山一丁目",,"34.657276","133.94592","219_1",,"0",,,,
"220_1",,"岡ビル前",,"34.66687","133.92274","220_1",,"0",,,,
"221_1",,"護国神社前",,"34.654938","133.95004","221_1",,"0",,,,
"221_2",,"護国神社前",,"34.655354","133.95013","221_2",,"0",,,,
"222_1",,"跨線橋東",,"34.671757","133.92268","222_1",,"0",,,,
"222_2",,"跨線橋東",,"34.67062","133.92267","222_2",,"0",,,,
"223_1",,"東山峠",,"34.651577","133.95036","223_1",,"0",,,,
"224_1",,"岡山駅西口",,"34.667107","133.91743","224_1",,"0",,,,
"224_2",,"岡山駅西口",,"34.666977","133.91734","224_2",,"0",,,,
"224_3",,"岡山駅西口",,"34.666832","133.91725","224_3",,"0",,,,
"224_4",,"岡山駅西口",,"34.66674","133.91655","224_4",,"0",,,,
"225_1",,"池の内",,"34.650887","133.9575","225_1",,"0",,,,
"226_1",,"済生会病院前",,"34.67093","133.91725","226_1",,"0",,,,
"226_2",,"済生会病院前",,"34.67109","133.917","226_2",,"0",,,,
"226_3",,"済生会病院前",,"34.67183","133.91835","226_3",,"0",,,,
"226_4",,"済生会病院前",,"34.672226","133.91882","226_4",,"0",,,,
"226_5",,"済生会病院前",,"34.67054","133.91794","226_5",,"0",,,,
"227_1",,"池の内東",,"34.650784","133.95952","227_1",,"0",,,,
"228_1",,"柳川",,"34.66628","133.92636","228_1",,"0",,,,
"228_2",,"柳川",,"34.666832","133.92604","228_2",,"0",,,,
"229_1",,"嶽",,"34.65137","133.96341","229_1",,"0",,,,
"229_2",,"嶽",,"34.65168","133.96396","229_2",,"0",,,,
"230_1",,"県民局入口",,"34.6686","133.92636","230_1",,"0",,,,
"230_2",,"県民局入口",,"34.66967","133.92606","230_2",,"0",,,,
"231_1",,"自動車学校入口",,"34.653927","133.96948","231_1",,"0",,,,
"232_1",,"番町口",,"34.67224","133.9264","232_1",,"0",,,,
"232_2",,"番町口",,"34.67209","133.92616","232_2",,"0",,,,
"233_1",,"曹源寺",,"34.655666","133.97362","233_1",,"0",,,,
"234_1",,"福泊",,"34.65705","133.97801","234_1",,"0",,,,
"235_1",,"オージー技研前",,"34.658382","133.98308","235_1",,"0",,,,
"236_1",,"海吉",,"34.65911","133.98549","236_1",,"0",,,,
"237_1",,"益野西",,"34.658787","133.99396","237_1",,"0",,,,
"238_1",,"益野中",,"34.658478","133.9971","238_1",,"0",,,,
"239_1",,"益野",,"34.658443","134.0033","239_1",,"0",,,,
"240_1",,"松崎",,"34.658386","134.0111","240_1",,"0",,,,
"241_1",,"西大寺中央クリニック前",,"34.657707","134.0139","241_1",,"0",,,,
"242_1",,"川井",,"34.6576","134.01768","242_1",,"0",,,,
"243_1",,"新橋",,"34.656734","134.02335","243_1",,"0",,,,
"244_1",,"警察署前",,"34.65616","134.02577","244_1",,"0",,,,
"245_1",,"西大寺",,"34.65654","134.03036","245_1",,"0",,,,
"246_2",,"西大寺町",,"34.659645","133.93062","246_2",,"0",,,,
"246_3",,"西大寺町",,"34.65983","133.93036","246_3",,"0",,,,
"247_1",,"小橋",,"34.657555","133.93604","247_1",,"0",,,,
"248_1",,"御幸町",,"34.655193","133.93498","248_1",,"0",,,,
"249_1",,"大井手",,"34.644737","133.93324","249_1",,"0",,,,
"250_1",,"平井元町",,"34.641823","133.93546","250_1",,"0",,,,
"251_1",,"木材市場前",,"34.638527","133.93895","251_1",,"0",,,,
"252_1",,"上平井",,"34.635704","133.94125","252_1",,"0",,,,
"253_1",,"平井",,"34.633354","133.94492","253_1",,"0",,,,
"254_1",,"平井下町",,"34.629433","133.94926","254_1",,"0",,,,
"255_1",,"宮道",,"34.624207","133.9541","255_1",,"0",,,,
"256_1",,"宮道東",,"34.625603","133.9573","256_1",,"0",,,,
"257_1",,"江崎",,"34.62732","133.96098","257_1",,"0",,,,
"258_1",,"藤崎",,"34.630005","133.96674","258_1",,"0",,,,
"259_1",,"操南中学校前",,"34.631607","133.9702","259_1",,"0",,,,
"260_1",,"桑野",,"34.632442","133.972","260_1",,"0",,,,
"261_1",,"桑野東",,"34.633827","133.97502","261_1",,"0",,,,
"262_1",,"沖元西",,"34.635418","133.97842","262_1",,"0",,,,
"263_1",,"沖元",,"34.636574","133.9812","263_1",,"0",,,,
"264_1",,"清内橋",,"34.6378","133.98753","264_1",,"0",,,,
"265_1",,"光津",,"34.637756","133.99303","265_1",,"0",,,,
"266_1",,"光政",,"34.637463","133.99763","266_1",,"0",,,,
"267_1",,"政津",,"34.6372","134.00368","267_1",,"0",,,,
"268_1",,"津田",,"34.63696","134.00998","268_1",,"0",,,,
"269_1",,"上南中学校前",,"34.635967","134.01338","269_1",,"0",,,,
"270_1",,"金田",,"34.636284","134.01807","270_1",,"0",,,,
"271_1",,"金岡",,"34.63697","134.0258","271_1",,"0",,,,
"272_1",,"都紀郷",,"34.639923","134.02615","272_1",,"0",,,,
"273_1",,"金岡中",,"34.642742","134.0265","273_1",,"0",,,,
"274_1",,"金岡上",,"34.646236","134.02693","274_1",,"0",,,,
"275_1",,"西大寺農協前",,"34.65253","134.02737","275_1",,"0",,,,
"276_1",,"桜ヶ丘",,"34.651184","133.94913","276_1",,"0",,,,
"277_1",,"岡山国際ホテル",,"34.649967","133.9488","277_1",,"0",,,,
"278_1",,"東山カントリー",,"34.64994","133.94995","278_1",,"0",,,,
"279_1",,"南山寮",,"34.648685","133.95123","279_1",,"0",,,,
"280_1",,"操陽団地",,"34.647945","133.95172","280_1",,"0",,,,
"281_1",,"六区",,"34.64659","133.95479","281_1",,"0",,,,
"282_1",,"一区",,"34.647408","133.95676","282_1",,"0",,,,
"283_1",,"操南台団地入口",,"34.64739","133.9584","283_1",,"0",,,,
"284_1",,"操南台団地東",,"34.645493","133.95491","284_1",,"0",,,,
"285_1",,"操南台団地中",,"34.6447","133.95174","285_1",,"0",,,,
"286_1",,"操南台団地西",,"34.643276","133.95045","286_1",,"0",,,,
"287_1",,"岡山芸術創造劇場ハレノワ前",,"34.657635","133.93034","287_1",,"0",,,,
"287_2",,"岡山芸術創造劇場ハレノワ前",,"34.65697","133.9305","287_2",,"0",,,,
"288_1",,"網浜中",,"34.64733","133.93533","288_1",,"0",,,,
"288_2",,"網浜中",,"34.64667","133.93549","288_2",,"0",,,,
"289_1",,"網浜下",,"34.6457","133.93501","289_1",,"0",,,,
"289_2",,"網浜下",,"34.64522","133.9352","289_2",,"0",,,,
"290_1",,"新道元町",,"34.642666","133.93585","290_1",,"0",,,,
"290_2",,"新道元町",,"34.642582","133.9362","290_2",,"0",,,,
"291_1",,"元上町",,"34.64135","133.93893","291_1",,"0",,,,
"291_2",,"元上町",,"34.64143","133.93942","291_2",,"0",,,,
"292_1",,"山陽学園大学・短大前",,"34.64051","133.94391","292_1",,"0",,,,
"292_2",,"山陽学園大学・短大前",,"34.640602","133.94398","292_2",,"0",,,,
"293_1",,"四軒屋",,"34.640293","133.94493","293_1",,"0",,,,
"293_2",,"四軒屋",,"34.6403","133.945","293_2",,"0",,,,
"294_1",,"四軒屋住宅",,"34.638992","133.94504","294_1",,"0",,,,
"294_2",,"四軒屋住宅",,"34.63877","133.94513","294_2",,"0",,,,
"295_1",,"平井小学校",,"34.63729","133.94513","295_1",,"0",,,,
"295_2",,"平井小学校",,"34.63719","133.94525","295_2",,"0",,,,
"296_1",,"平井小学校入口",,"34.63673","133.94476","296_1",,"0",,,,
"296_2",,"平井小学校入口",,"34.63657","133.94577","296_2",,"0",,,,
"297_1",,"川東町入口",,"34.635204","133.94872","297_1",,"0",,,,
"297_2",,"川東町入口",,"34.635162","133.94942","297_2",,"0",,,,
"298_1",,"倉田北",,"34.63372","133.95265","298_1",,"0",,,,
"298_2",,"倉田北",,"34.63365","133.9535","298_2",,"0",,,,
"299_1",,"旭東病院前",,"34.632","133.95554","299_1",,"0",,,,
"299_2",,"旭東病院前",,"34.63213","133.95576","299_2",,"0",,,,
"300_1",,"操南団地入口",,"34.629745","133.95767","300_1",,"0",,,,
"300_2",,"操南団地入口",,"34.63018","133.95755","300_2",,"0",,,,
"301_1",,"新道江崎",,"34.62721","133.95999","301_1",,"0",,,,
"301_2",,"新道江崎",,"34.62664","133.96086","301_2",,"0",,,,
"302_1",,"新道江崎下",,"34.62562","133.9615","302_1",,"0",,,,
"302_2",,"新道江崎下",,"34.62563","133.96178","302_2",,"0",,,,
"303_1",,"博愛会病院前",,"34.62387","133.96309","303_1",,"0",,,,
"303_2",,"博愛会病院前",,"34.62387","133.96344","303_2",,"0",,,,
"304_1",,"新道中畑",,"34.622837","133.96407","304_1",,"0",,,,
